{"version": 0.6, "generator": "Overpass API 0.7.62.8 e802775f", "osm3s": {"timestamp_osm_base": "2025-11-27T12:43:30Z", "copyright": "The data included in this document is from www.openstreetmap.org. The data is made available under ODbL."}, "elements": [{"type": "node", "id": 42469945, "lat": 40.6432837, "lon": -73.9181477}, {"type": "node", "id": 42469957, "lat": 40.6419029, "lon": -73.9165941, "tags": {"highway": "traffic_signals", "traffic_signals": "signal"}}, {"type": "node", "id": 42491090, "lat": 40.6437329, "lon": -73.9137281, "tags": {"highway": "traffic_signals"}}, {"type": "node", "id": 42491104, "lat": 40.6450614, "lon": -73.9152973}, {"type": "node", "id": 42517627, "lat": 40.6432539, "lon": -73.9144783}, {"type": "node", "id": 297462339, "lat": 40.7248988, "lon": -74.0378089}, {"type": "node", "id": 297462345, "lat": 40.7257847, "lon": -74.0386909}, {"type": "node", "id": 297462347, "lat": 40.7257155, "lon": -74.0388143}, {"type": "node", "id": 297462348, "lat": 40.724995, "lon": -74.0389216}, {"type": "node", "id": 297462353, "lat": 40.7259066, "lon": -74.0387903}, {"type": "node", "id": 297462357, "lat": 40.7263879, "lon": -74.0387592}, {"type": "node", "id": 297462359, "lat": 40.7264799, "lon": -74.0387338}, {"type": "node", "id": 297462361, "lat": 40.7265299, "lon": -74.0387257}, {"type": "node", "id": 297462363, "lat": 40.7267864, "lon": -74.0386403}, {"type": "node", "id": 297462365, "lat": 40.7268477, "lon": -74.0385282}, {"type": "node", "id": 297462370, "lat": 40.7270531, "lon": -74.0386656}, {"type": "node", "id": 297462373, "lat": 40.7271515, "lon": -74.0386305}, {"type": "node", "id": 297462375, "lat": 40.7272276, "lon": -74.0385512}, {"type": "node", "id": 297462376, "lat": 40.7272651, "lon": -74.0384479}, {"type": "node", "id": 297462378, "lat": 40.7273319, "lon": -74.0385711}, {"type": "node", "id": 297462385, "lat": 40.7276764, "lon": -74.0385592}, {"type": "node", "id": 297462390, "lat": 40.7279843, "lon": -74.0384646}, {"type": "node", "id": 297462392, "lat": 40.7280835, "lon": -74.0383377}, {"type": "node", "id": 297462400, "lat": 40.7265645, "lon": -74.036477}, {"type": "node", "id": 297462413, "lat": 40.7259256, "lon": -74.0365778}, {"type": "node", "id": 297462418, "lat": 40.7278734, "lon": -74.0362772}, {"type": "node", "id": 297462431, "lat": 40.7288064, "lon": -74.0375082}, {"type": "node", "id": 297462432, "lat": 40.7290112, "lon": -74.0374818}, {"type": "node", "id": 297466385, "lat": 40.7332444, "lon": -74.0348408}, {"type": "node", "id": 357645476, "lat": 40.6900102, "lon": -73.9929109, "tags": {"name": "Alnoor Boutique", "phone": "+1-718-802-1514", "shop": "clothes"}}, {"type": "node", "id": 357647461, "lat": 40.7387161, "lon": -73.9824733, "tags": {"addr:housenumber": "207", "addr:postcode": "10010", "addr:street": "East 23rd Street", "fax": "+1-212-592-2914", "name": "SVA Campus Store", "opening_hours": "Mo-Fr 10:00-18:00", "operator": "School of Visual Arts", "phone": "+1-212-592-2900", "shop": "gift"}}, {"type": "node", "id": 361085298, "lat": 40.6627673, "lon": -73.7225204}, {"type": "node", "id": 361085299, "lat": 40.6624774, "lon": -73.7214963}, {"type": "node", "id": 361085300, "lat": 40.6625297, "lon": -73.7214752}, {"type": "node", "id": 361085301, "lat": 40.6612172, "lon": -73.7180641}, {"type": "node", "id": 361085302, "lat": 40.6614211, "lon": -73.7179714}, {"type": "node", "id": 361085303, "lat": 40.6611183, "lon": -73.7168604}, {"type": "node", "id": 361085304, "lat": 40.661895, "lon": -73.7164833}, {"type": "node", "id": 361085305, "lat": 40.6621565, "lon": -73.7174194}, {"type": "node", "id": 361085307, "lat": 40.6629271, "lon": -73.7173641}, {"type": "node", "id": 361085308, "lat": 40.663165, "lon": -73.7182808}, {"type": "node", "id": 361085309, "lat": 40.6631175, "lon": -73.7182855}, {"type": "node", "id": 361085310, "lat": 40.6632086, "lon": -73.7186077}, {"type": "node", "id": 361085311, "lat": 40.6632918, "lon": -73.7187018}, {"type": "node", "id": 361085312, "lat": 40.6630056, "lon": -73.7197915}, {"type": "node", "id": 361085313, "lat": 40.6629068, "lon": -73.7199151}, {"type": "node", "id": 361085314, "lat": 40.6632039, "lon": -73.7209692}, {"type": "node", "id": 361085315, "lat": 40.6630655, "lon": -73.7210399}, {"type": "node", "id": 361085316, "lat": 40.6633419, "lon": -73.7222441}, {"type": "node", "id": 368047907, "lat": 40.6437244, "lon": -74.0115417, "tags": {"name": "Porta Bella", "opening_hours": "Mo-Th 10:30-19:30; Fr 10:00-20:00; Sa 10:00-20:30; Su 10:00-19:00", "phone": "+1-718-765-1450", "shop": "clothes", "website": "https://www.portabellastores.com"}}, {"type": "node", "id": 368053310, "lat": 40.7369258, "lon": -73.9896011, "tags": {"addr:city": "New York", "addr:country": "US", "addr:housenumber": "33", "addr:postcode": "10003", "addr:state": "NY", "addr:street": "East 17th Street", "branch": "Union Square", "brand": "Barnes & Noble", "brand:wikidata": "Q795454", "name": "Barnes & Noble", "opening_hours": "Su 10:00-21:00; Mo-Th 09:00-21:00; Fr, Sa 09:00-22:00", "opening_hours:signed": "no", "phone": "+1 212-253-0810", "shop": "books", "website": "https://stores.barnesandnoble.com/store/2675"}}, {"type": "node", "id": 368061395, "lat": 40.8786111, "lon": -73.9172222, "tags": {"addr:state": "NY", "ele": "48", "gnis:feature_id": "2377155", "name": "Knolls Shopping Center", "shop": "mall", "source": "USGS Geonames"}}, {"type": "node", "id": 368061607, "lat": 40.7250957, "lon": -74.0049076, "tags": {"addr:city": "New York", "addr:housenumber": "145", "addr:postcode": "10013-1548", "addr:state": "NY", "addr:street": "Sixth Avenue", "check_date:opening_hours": "2024-09-08", "ele": "16", "gnis:feature_id": "2091587", "name": "Dahesh Museum of Art Gift Shop and Offices", "note": "\"There are no art exhibitions on view at this location\"", "opening_hours": "Tu-Sa 10:00-17:00", "shop": "gift", "start_date": "1995", "website": "https://www.daheshmuseum.org/", "wikidata": "Q2999991", "wikipedia": "en:Dahesh Museum of Art"}}, {"type": "node", "id": 418520887, "lat": 40.636934, "lon": -74.076656, "tags": {"addr:city": "Staten Island", "addr:housenumber": "208", "addr:state": "NY", "addr:street": "Bay Street", "amenity": "cafe", "internet_access": "wlan", "internet_access:fee": "no", "name": "Everything Goes Book Cafe", "outdoor_seating": "yes", "shop": "books", "smoking": "no", "toilets:wheelchair": "no", "wheelchair": "limited"}}, {"type": "node", "id": 419361814, "lat": 40.7266107, "lon": -73.9901732, "tags": {"name": "Random Accessories", "opening_hours": "Mo 12:00-18:30; Tu-We 12:00-19:00; Th 12:00-20:00; Fr-Sa 12:00-21:00; Su 12:00-19:00", "phone": "+1-212-358-0650", "shop": "gift", "website": "https://randomaccessoriesnyc.com"}}, {"type": "node", "id": 419363676, "lat": 40.6702594, "lon": -73.9506186, "tags": {"alt_name": "MetroPCS", "brand": "Metro by T-Mobile", "brand:wikidata": "Q1925685", "fixme": "find address", "name": "Metro by T-Mobile", "shop": "mobile_phone"}}, {"type": "node", "id": 419364456, "lat": 40.715726, "lon": -73.9990159, "tags": {"addr:housenumber": "85B", "addr:postcode": "10013", "addr:street": "Bayard Street", "brand": "Cricket Wireless", "brand:wikidata": "Q5184987", "name": "Cricket Wireless", "opening_hours": "Mo-Su 10:00-19:00", "phone": "+1-212-587-3840", "shop": "mobile_phone", "short_name": "Cricket"}}, {"type": "node", "id": 419368080, "lat": 40.6857118, "lon": -73.9821364, "tags": {"name": "Dar-Us-Salam Bookstore", "opening_hours": "Mo-Su 11:00-19:00", "phone": "+1-718-625-5925", "shop": "books", "website": "https://darussalamny.com"}}, {"type": "node", "id": 502833400, "lat": 40.7595986, "lon": -73.8291313, "tags": {"name": "New World Mall", "name:zh": "\u65b0\u4e16\u754c", "operator": "Macy's", "shop": "department_store"}}, {"type": "node", "id": 552255010, "lat": 40.7027678, "lon": -73.9877424, "tags": {"amenity": "marketplace", "branch": "Dumbo", "name": "Brooklyn Flea", "opening_hours": "Su 10:00-18:00", "website": "https://brooklynflea.com/markets/dumbo"}}, {"type": "node", "id": 625842823, "lat": 40.8071007, "lon": -73.9641277, "tags": {"name": "Columbia University Bookstore", "shop": "books"}}, {"type": "node", "id": 663072725, "lat": 40.7572492, "lon": -73.9784073, "tags": {"addr:housenumber": "592", "addr:postcode": "10036", "addr:street": "5th Avenue", "brand": "Lululemon", "brand:wikidata": "Q6702957", "clothes": "men;women", "name": "Lululemon", "official_name": "Lululemon Athletica", "shop": "clothes"}}, {"type": "node", "id": 663084339, "lat": 40.7535383, "lon": -73.9805923, "tags": {"brand": "H&M", "brand:wikidata": "Q188326", "name": "H&M", "shop": "clothes"}}, {"type": "node", "id": 663084489, "lat": 40.7537116, "lon": -73.9809753, "tags": {"brand": "Zara", "brand:wikidata": "Q147662", "name": "Zara", "shop": "clothes", "wheelchair": "yes"}}, {"type": "node", "id": 663085715, "lat": 40.750696, "lon": -73.982649, "tags": {"addr:city": "New York", "addr:housenumber": "417", "addr:postcode": "10016", "addr:state": "NY", "addr:street": "5th Avenue", "brand": "Zales", "brand:wikidata": "Q8065305", "name": "Zales", "official_name": "Zales The Diamond Store", "opening_hours": "Mo-Fr 11:00-19:00; Su 12:00-18:00", "payment:credit_cards": "yes", "payment:debit_cards": "yes", "payment:nfc_mobile_payments": "yes", "phone": "+1-212-679-3626", "shop": "jewelry"}}, {"type": "node", "id": 663099302, "lat": 40.75005, "lon": -73.9888498, "tags": {"brand": "Sephora", "brand:wikidata": "Q2408041", "name": "Sephora", "opening_hours": "Mo-Sa 10:00-21:00; Su 11:00-20:00", "shop": "cosmetics"}}, {"type": "node", "id": 663387539, "lat": 40.7526109, "lon": -73.9929161, "tags": {"addr:housenumber": "494", "addr:postcode": "10001", "addr:street": "8th Avenue", "name": "NY Camera & Electronics Corporation", "opening_hours": "08:00-23:00", "phone": "+1 212-244-6460", "shop": "electronics", "website": "https://ny-camera-electronics-corporation.slue.io/"}}, {"type": "node", "id": 702340637, "lat": 40.6428374, "lon": -74.1043, "tags": {"shop": "gift", "wheelchair": "yes"}}, {"type": "node", "id": 773343881, "lat": 40.7411861, "lon": -74.0054573, "tags": {"addr:city": "New York", "addr:country": "US", "addr:housenumber": "401", "addr:postcode": "10011", "addr:state": "NY", "addr:street": "West 14th Street", "brand": "Apple Store", "brand:wikidata": "Q421253", "check_date": "2024-10-09", "name": "Apple West 14th Street", "opening_hours": "Mo-Sa 09:00-21:00; Su 09:00-19:00", "phone": "+1-212-444-3400", "shop": "electronics", "short_name": "Apple", "website": "https://www.apple.com/retail/west14thstreet/"}}, {"type": "node", "id": 886392347, "lat": 40.7292215, "lon": -73.9932385, "tags": {"addr:city": "New York", "addr:housenumber": "726", "addr:postcode": "10003", "addr:state": "NY", "addr:street": "Broadway", "email": "NYU@bkstr.com", "name": "NYU Bookstore", "opening_hours": "Mo-Fr 10:00-18:00; Sa 11:00-17:00", "phone": "+1 212-998-4667", "shop": "books", "website": "https://www.bkstr.com/nyustore/home"}}, {"type": "node", "id": 886395953, "lat": 40.7287947, "lon": -73.9936354, "tags": {"addr:housenumber": "716", "addr:street": "Broadway", "brand": "Buffalo Exchange", "brand:wikidata": "Q4985721", "name": "Buffalo Exchange", "opening_hours": "Mo-Sa 11:00-20:00; Su 11:00-19:00", "second_hand": "only", "shop": "clothes"}}, {"type": "node", "id": 886530248, "lat": 40.7283854, "lon": -73.9939823, "tags": {"name": "Rumble", "opening_hours:signed": "no", "shop": "clothes"}}, {"type": "node", "id": 886674467, "lat": 40.7282196, "lon": -73.9946324, "tags": {"addr:housenumber": "687", "addr:postcode": "10012", "addr:street": "Broadway", "name": "Infinity Shoes", "opening_hours": "Mo-Sa 11:00-21:00; Su 12:00-19:30", "phone": "+1 212-475-5952", "shop": "shoes", "website": "https://www.infinityshoes.com/infinity-nyc"}}, {"type": "node", "id": 886674498, "lat": 40.728098, "lon": -73.9947214, "tags": {"addr:housenumber": "687A", "addr:street": "Broadway", "name": "Miz Mooz", "shop": "shoes"}}, {"type": "node", "id": 886706963, "lat": 40.7271255, "lon": -73.995546, "tags": {"addr:housenumber": "659", "addr:postcode": "10012", "addr:street": "Broadway", "name": "A Sneaker City", "shop": "shoes", "wheelchair": "yes"}}, {"type": "node", "id": 887114819, "lat": 40.7269718, "lon": -73.9956715, "tags": {"addr:housenumber": "653", "addr:postcode": "10012", "addr:street": "Broadway", "email": "info@mariatash.com", "fax": "+1-212-253-5928", "name": "Maria Tash", "opening_hours": "Mo-We 11:00-20:00, Th-Sa 10:00-20:00, Su 11:00-19:00", "payment:debit_cards": "yes", "phone": "+1-212-253-0921", "shop": "jewelry", "website": "https://mariatash.com/"}}, {"type": "node", "id": 888966665, "lat": 40.7168786, "lon": -73.9585643, "tags": {"level": "0.5", "name": "Bedford Vintage", "shop": "clothes"}}, {"type": "node", "id": 889081103, "lat": 40.715043, "lon": -74.011071, "tags": {"alt_name": "Verizon Wireless", "brand": "Verizon", "brand:wikidata": "Q919641", "name": "Verizon", "opening_hours": "Mo-Fr 09:00-19:00; Sa 10:00-18:00; Su 11:00-17:00", "shop": "mobile_phone"}}, {"type": "node", "id": 984788374, "lat": 40.6659829, "lon": -74.1042405}, {"type": "node", "id": 984788375, "lat": 40.6682656, "lon": -74.1070676}, {"type": "node", "id": 984788383, "lat": 40.6683795, "lon": -74.1071588}, {"type": "node", "id": 984788386, "lat": 40.6688963, "lon": -74.1073948}, {"type": "node", "id": 984788387, "lat": 40.6689492, "lon": -74.1072124}, {"type": "node", "id": 984788388, "lat": 40.6680744, "lon": -74.1014403}, {"type": "node", "id": 999526099, "lat": 40.7688194, "lon": -73.982397, "tags": {"addr:city": "New York", "addr:housenumber": "10", "addr:state": "NY", "addr:street": "Columbus Circle", "addr:unit": "118", "air_conditioning": "yes", "brand": "Vineyard Vines", "brand:wikidata": "Q7932495", "email": "columbuscircle@vineyardvines.com", "level": "0", "name": "Vineyard Vines", "opening_hours": "off", "phone": "+1-646-758-7289", "second_hand": "no", "shop": "clothes", "smoking": "no", "website": "https://www.vineyardvines.com/storedetails?StoreID=161"}}, {"type": "node", "id": 999934639, "lat": 40.7332796, "lon": -73.9909401, "tags": {"addr:city": "New York", "addr:housenumber": "828", "addr:postcode": "10003", "addr:street": "Broadway", "alt_name": "The Strand", "fax": "+1 212-473-2591", "name": "Strand Bookstore", "opening_hours": "Mo-Su 10:00-21:00", "phone": "+1 212-473-1452", "shop": "books", "website": "https://www.strandbooks.com/", "wheelchair": "yes", "wikidata": "Q3500024", "wikipedia": "en:Strand Bookstore"}}, {"type": "node", "id": 1000793154, "lat": 40.7558228, "lon": -73.9787965, "tags": {"addr:city": "New York", "addr:country": "US", "addr:housenumber": "555", "addr:postcode": "10017", "addr:state": "NY", "addr:street": "5th Avenue", "branch": "5th Avenue", "brand": "Barnes & Noble", "brand:website": "https://www.barnesandnoble.com/", "brand:wikidata": "Q795454", "check_date": "2025-01-30", "level": "0", "name": "Barnes & Noble", "opening_hours": "Mo-Fr 09:00-21:00; Sa, Su 10:00-21:00", "operator": "Barnes & Noble", "phone": "+1 212-697-3048", "shop": "books", "website": "https://stores.barnesandnoble.com/store/2234", "wheelchair": "yes"}}, {"type": "node", "id": 1001284305, "lat": 40.7223219, "lon": -73.9996236, "tags": {"addr:housenumber": "503", "addr:state": "NY", "addr:street": "Broadway", "brand": "PacSun", "brand:wikidata": "Q7121857", "name": "PacSun", "shop": "clothes"}}, {"type": "node", "id": 1003286805, "lat": 40.7366941, "lon": -73.9900361, "tags": {"addr:housenumber": "1", "addr:postcode": "10003", "addr:street": "Union Square West", "amenity": "marketplace", "name": "Union Square Green Market", "opening_hours": "Mo,We,Fr-Sa 08:00-18:00", "operator": "Local farmers", "wikidata": "Q7886047", "wikipedia": "en:Union Square Greenmarket"}}, {"type": "node", "id": 1024654732, "lat": 40.6644231, "lon": -73.7215081}, {"type": "node", "id": 1024654734, "lat": 40.664149, "lon": -73.7204407}, {"type": "node", "id": 1024654735, "lat": 40.6648224, "lon": -73.7196812}, {"type": "node", "id": 1024654738, "lat": 40.6651828, "lon": -73.7214003}, {"type": "node", "id": 1024654741, "lat": 40.6647196, "lon": -73.7215998}, {"type": "node", "id": 1024654743, "lat": 40.6646714, "lon": -73.7214056}, {"type": "node", "id": 1024654749, "lat": 40.6643821, "lon": -73.7213354}, {"type": "node", "id": 1024654752, "lat": 40.6631958, "lon": -73.7196301}, {"type": "node", "id": 1024654754, "lat": 40.6631653, "lon": -73.7197191}, {"type": "node", "id": 1024654757, "lat": 40.6629771, "lon": -73.7198814}, {"type": "node", "id": 1024654759, "lat": 40.6629117, "lon": -73.7199325}, {"type": "node", "id": 1024654766, "lat": 40.662849, "lon": -73.721145}, {"type": "node", "id": 1024654783, "lat": 40.6636446, "lon": -73.7191636}, {"type": "node", "id": 1095171630, "lat": 40.6765885, "lon": -73.9805222, "tags": {"name": "Something Else On Fifth", "opening_hours": "Mo-Fr 12:00-18:00; Sa-Su 11:00-18:00", "phone": "+1-718-622-1262", "shop": "clothes", "website": "http://somethingelsebk.com"}}, {"type": "node", "id": 1112495101, "lat": 40.7267596, "lon": -73.9905313, "tags": {"description": "antique prints and maps", "name": "Pageant Print Shop", "opening_hours": "Mo-Su 12:00-19:00", "phone": "+1-212-674-5296", "shop": "art", "website": "https://www.pageantprintshop.nyc"}}, {"type": "node", "id": 1240901078, "lat": 40.7672289, "lon": -73.9715817, "tags": {"addr:city": "New York", "addr:housenumber": "850", "addr:postcode": "10065", "addr:state": "NY", "addr:street": "5th Avenue", "name": "Zootique", "opening_hours": "10:00-16:30", "operator": "Wildlife Conservation Society", "shop": "gift"}}, {"type": "node", "id": 1241281004, "lat": 40.7235022, "lon": -73.998176, "tags": {"addr:city": "New York", "addr:country": "US", "addr:housenumber": "546", "addr:postcode": "10012", "addr:state": "NY", "addr:street": "Broadway", "branch": "SOHO", "brand": "Uniqlo", "brand:wikidata": "Q26070", "check_date": "2023-12-10", "name": "Uniqlo", "opening_hours": "Mo-Su 11:00-20:00", "phone": "+1-877-486-4756", "ref": "10200001", "shop": "clothes", "website": "https://www.uniqlo.com/us/en/stores-details/?StoreID=10200001", "wheelchair": "limited"}}, {"type": "node", "id": 1272608999, "lat": 40.7420513, "lon": -74.0048973, "tags": {"addr:city": "New York", "addr:country": "US", "addr:housenumber": "75", "addr:postcode": "10011", "addr:state": "NY", "addr:street": "9th Avenue", "ele": "4", "gnis:feature_id": "2083015", "name": "Chelsea Market", "name:he": "\u05de\u05ea\u05d7\u05dd \u05d0\u05d5\u05db\u05dc \u05e0\u05d7\u05de\u05d3", "name:zh": "\u96c0\u5152\u559c\u5e02\u5834", "opening_hours": "Mo-Sa 07:00-02:00; Su 08:00-20:00", "shop": "mall", "source": "USGS Geonames", "website": "https://www.chelseamarket.com/", "wheelchair": "limited", "wikidata": "Q5090112"}}, {"type": "node", "id": 1279337154, "lat": 40.7065818, "lon": -74.0100596, "tags": {"addr:housenumber": "37", "addr:postcode": "10005", "addr:street": "Wall Street", "brand": "Tiffany & Company", "brand:wikidata": "Q1066858", "name": "Tiffany & Company", "official_name": "Tiffany & Co.", "opening_hours": "Mo-Fr 10:00-19:00; Sa 11:00-16:00; Su 12:00-17:00", "phone": "+12125148015", "shop": "jewelry", "wheelchair": "yes"}}, {"type": "node", "id": 1289044033, "lat": 40.725039, "lon": -73.9991532, "tags": {"addr:housenumber": "103", "addr:street": "Prince Street", "brand": "Apple Store", "brand:wikidata": "Q421253", "check_date": "2023-12-10", "name": "Apple Store SoHo", "opening_hours": "Mo-Sa 09:00-21:00; Su 10:00-20:00", "payment:credit_cards": "yes", "payment:debit_cards": "yes", "phone": "+1-212-226-3126", "shop": "electronics", "short_name": "Apple", "toilets": "yes", "toilets:access": "permissive", "toilets:wheelchair": "yes", "website": "https://www.apple.com/retail/soho/", "wheelchair": "yes", "wikidata": "Q59919361"}}, {"type": "node", "id": 1297470390, "lat": 40.7348789, "lon": -73.9915816, "tags": {"addr:city": "New York", "addr:housenumber": "4", "addr:postcode": "10003", "addr:state": "NY", "addr:street": "Union Square South", "brand": "DSW", "brand:wikidata": "Q5206207", "check_date": "2024-06-10;2025-11-09", "level": "2", "name": "DSW", "opening_hours": "Mo-Sa 09:00-21:00; Su 09:00-20:00", "payment:cash": "yes", "payment:credit_cards": "yes", "payment:debit_cards": "yes", "phone": "+1-212-674-2146", "shop": "shoes", "website": "https://stores.dsw.com/usa/ny/newyork/dsw-designer-shoe-warehouse-union-square---e-14th-st---university-pl.html", "wheelchair": "yes"}}, {"type": "node", "id": 1297627766, "lat": 40.7236731, "lon": -73.9946151, "tags": {"name": "Second Time Around", "shop": "clothes"}}, {"type": "node", "id": 1297629339, "lat": 40.7276373, "lon": -73.9935441, "tags": {"name": "Screaming Mimi's", "shop": "clothes"}}, {"type": "node", "id": 1297648535, "lat": 40.7531288, "lon": -73.9961373, "tags": {"addr:city": "New York", "addr:housenumber": "420", "addr:postcode": "10001", "addr:state": "NY", "addr:street": "9th Avenue", "fixme": "recheck opening hours after 2023-07", "name": "B&H Photo Video", "opening_hours": "Mo-Th 10:00-19:00; Fr 10:00-14:00; Su 10:00-18:00; Jan 01,Dec 25 off; Nov Th[4] off; 2023 Jul 27,Sep 16-17,Sep 24-25,Sep 30,Oct 01-08 off; 2023 Jul 4,Sep 4 10:00-18:00; 2023 Jul 26 10:00-17:00; 2023 Sep 15,Sep 29 10:00-13:00; 2023 Nov 24 08:00-13:00", "phone": "+1-212-444-6615", "shop": "electronics", "short_name": "B&H", "website": "https://www.bhphotovideo.com/find/HelpCenter/StoreInfo.jsp", "wikidata": "Q2919722", "wikipedia": "en:B&H Photo"}}, {"type": "node", "id": 1297657184, "lat": 40.7225835, "lon": -73.9975119, "tags": {"name": "Premium Laces", "shop": "shoes"}}, {"type": "node", "id": 1297660939, "lat": 40.7413644, "lon": -73.9989975, "tags": {"name": "Barney's Co-op", "not:brand:wikidata": "Q59465", "shop": "clothes"}}, {"type": "node", "id": 1297673491, "lat": 40.7199877, "lon": -73.9568654, "tags": {"name": "Peachfrog", "shop": "clothes", "website": "https://peachfrog.com/"}}, {"type": "node", "id": 1329122396, "lat": 40.7581275, "lon": -73.9764501}, {"type": "node", "id": 1329122477, "lat": 40.7576428, "lon": -73.9768093}, {"type": "node", "id": 1378899206, "lat": 40.7229924, "lon": -74.0019501, "tags": {"name": "Cult Gaia", "shop": "clothes"}}, {"type": "node", "id": 1378899236, "lat": 40.7221884, "lon": -74.0009428, "tags": {"addr:city": "New York", "addr:housenumber": "453", "addr:postcode": "10013", "addr:state": "NY", "addr:street": "Broome Street", "branch": "NY Soho", "brand": "Suitsupply", "brand:wikidata": "Q17149142", "clothes": "suits", "email": "nysoho@suitsupply.com", "name": "Suitsupply", "opening_hours": "Mo-Sa 11:00-19:00; Su 12:00-18:00", "phone": "+1 917-521-5759", "shop": "clothes", "website": "https://suitsupply.com/en-us/stores-detail?storeID=stores-NewYork-Soho"}}, {"type": "node", "id": 1378899289, "lat": 40.7215489, "lon": -73.999866, "tags": {"addr:housenumber": "484", "addr:street": "Broadway", "branch": "Mens Shop", "brand": "J.Crew", "brand:wikidata": "Q5370765", "clothes": "men", "name": "J.Crew Men's Shop", "opening_hours": "Mo-Sa 10:00-20:00, Su 11:00-19:00", "phone": "+1-212-343-1227", "shop": "clothes", "website": "https://stores.jcrew.com/us/ny/new-york/484-broadway"}}, {"type": "node", "id": 1383934394, "lat": 40.7675765, "lon": -73.984466, "tags": {"brand": "RadioShack", "brand:wikidata": "Q1195490", "name": "RadioShack", "shop": "electronics"}}, {"type": "node", "id": 1383949229, "lat": 40.7663399, "lon": -73.9826892, "tags": {"addr:city": "New York", "addr:housenumber": "250", "addr:postcode": "10107", "addr:state": "NY", "addr:street": "West 57th Street", "brand": "TJ Maxx", "brand:wikidata": "Q10860683", "check_date": "2025-04-29", "contact:phone": "+1-212-245-6201", "name": "TJ Maxx", "opening_hours": "Mo-Sa 08:30-21:00; Su 09:30-21:30", "shop": "department_store", "website": "https://tjmaxx.tjx.com/store/stores/New+York-NY-10107/1163/aboutstore", "wheelchair": "yes"}}, {"type": "node", "id": 1383963882, "lat": 40.7426455, "lon": -73.9926972, "tags": {"addr:city": "New York", "addr:housenumber": "60", "addr:postcode": "10010", "addr:state": "NY", "addr:street": "West 23rd Street", "branch": "Chelsea", "brand": "Best Buy", "brand:wikidata": "Q533415", "name": "Best Buy", "opening_hours": "Mo-Sa 10:00-20:00; Su 11:00-19:00", "phone": "+1 212-366-1373", "postal_code": "10010", "ref": "482", "shop": "electronics", "website": "https://stores.bestbuy.com/482", "wheelchair": "yes"}}, {"type": "node", "id": 1413105218, "lat": 40.7537134, "lon": -73.9914496, "tags": {"addr:housenumber": "248", "addr:postcode": "10018", "addr:street": "West 37th Street", "name": "Selini Neckwear Inc.", "shop": "clothes", "website": "https://www.selininy.com/"}}, {"type": "node", "id": 1413108278, "lat": 40.7537052, "lon": -73.9914123, "tags": {"addr:housenumber": "803", "addr:postcode": "10018", "addr:street": "West 37th Street", "name": "Angelic Rise", "shop": "jewelry", "website": "https://www.angelicrise.com/"}}, {"type": "node", "id": 1426276157, "lat": 40.756593, "lon": -73.9867931, "tags": {"brand": "AT&T", "brand:wikidata": "Q298594", "name": "AT&T", "shop": "mobile_phone"}}, {"type": "node", "id": 1427212522, "lat": 40.7524796, "lon": -73.9793029, "tags": {"brand": "T-Mobile", "brand:wikidata": "Q3511885", "name": "T-Mobile", "shop": "mobile_phone"}}, {"type": "node", "id": 1427273331, "lat": 40.7527835, "lon": -73.9748802, "tags": {"addr:street": "Lexington Avenue", "brand": "Bath & Body Works", "brand:wikidata": "Q810773", "name": "Bath & Body Works", "shop": "cosmetics"}}, {"type": "node", "id": 1427285966, "lat": 40.7511476, "lon": -73.9765152, "tags": {"alt_name": "Verizon Wireless", "brand": "Verizon", "brand:wikidata": "Q919641", "name": "Verizon", "shop": "mobile_phone"}}, {"type": "node", "id": 1427521107, "lat": 40.7498546, "lon": -73.9833154, "tags": {"name": "Yankees", "name:zh": "\u7ebd\u7ea6\u6d0b\u57fa\u961f\u4ff1\u4e50\u90e8", "shop": "clothes"}}, {"type": "node", "id": 1428036360, "lat": 40.753808, "lon": -73.9804143, "tags": {"brand": "Skechers", "brand:wikidata": "Q2945643", "level": "0", "name": "Skechers", "shop": "shoes"}}, {"type": "node", "id": 1428036380, "lat": 40.7542617, "lon": -73.9800487, "tags": {"brand": "Urban Outfitters", "brand:wikidata": "Q3552193", "check_date": "2025-01-30", "name": "Urban Outfitters", "shop": "clothes", "wheelchair": "yes"}}, {"type": "node", "id": 1428036564, "lat": 40.7555913, "lon": -73.9770542, "tags": {"brand": "AT&T", "brand:wikidata": "Q298594", "name": "AT&T", "shop": "mobile_phone", "wheelchair": "yes"}}, {"type": "node", "id": 1428036585, "lat": 40.7554348, "lon": -73.977162, "tags": {"name": "Charles Tyrwhitt", "shop": "clothes", "wheelchair": "yes"}}, {"type": "node", "id": 1428036618, "lat": 40.7552783, "lon": -73.977656, "tags": {"check_date": "2025-06-15", "name": "JoS. A. Bank", "opening_hours": "Mo-Sa 09:00-20:00; Su 10:00-20:00", "shop": "clothes"}}, {"type": "node", "id": 1428036640, "lat": 40.7551081, "lon": -73.9778087, "tags": {"addr:city": "New York", "addr:country": "US", "addr:housenumber": "360", "addr:postcode": "10017", "addr:state": "NY", "addr:street": "Madison Avenue", "check_date": "2025-06-15", "name": "My.Suit", "opening_hours": "Mo-Sa 10:00-19:00", "shop": "clothes", "website": "mysuitny.com", "wheelchair": "yes"}}, {"type": "node", "id": 1428036643, "lat": 40.7547985, "lon": -73.9776337, "tags": {"brand": "Clarks", "brand:wikidata": "Q1095857", "check_date": "2025-06-15", "name": "Portabella", "shop": "clothes", "wheelchair": "limited"}}, {"type": "node", "id": 1428427558, "lat": 40.7585649, "lon": -73.9748533, "tags": {"addr:housenumber": "477", "addr:street": "Madison Avenue", "branch": "Madison Avenue", "brand": "Express", "brand:wikidata": "Q1384784", "clothes": "women;men", "name": "Express", "opening_hours": "Mo-Fr 08:00-21:00; Sa 10:00-21:00; Su 10:00-20:00", "phone": "+1 212-644-4453", "shop": "clothes", "website": "https://stores.express.com/us/ny/new-york/477-madison-avenue"}}, {"type": "node", "id": 1428427559, "lat": 40.7589868, "lon": -73.975024, "tags": {"shop": "clothes"}}, {"type": "node", "id": 1428427560, "lat": 40.7589187, "lon": -73.9746107, "tags": {"brand": "T-Mobile", "brand:wikidata": "Q3511885", "name": "T-Mobile", "shop": "mobile_phone"}}, {"type": "node", "id": 1428427566, "lat": 40.7610889, "lon": -73.9750755, "tags": {"addr:postcode": "10022", "brand": "Canada Goose", "brand:wikidata": "Q2988422", "clothes": "outdoor", "name": "Canada Goose", "shop": "clothes"}}, {"type": "node", "id": 1428427568, "lat": 40.7610186, "lon": -73.9756542, "tags": {"brand": "Swarovski", "brand:wikidata": "Q611115", "check_date": "2025-03-02", "level": "0", "name": "Swarovski", "shop": "jewelry", "wheelchair": "no"}}, {"type": "node", "id": 1428427571, "lat": 40.7602252, "lon": -73.9757516, "tags": {"brand": "St. John", "brand:wikidata": "Q7588866", "name": "St. John", "shop": "clothes", "wheelchair": "yes"}}, {"type": "node", "id": 1428427572, "lat": 40.7601652, "lon": -73.976054, "tags": {"addr:city": "New York", "addr:housenumber": "647", "addr:postcode": "10022", "addr:state": "NY", "addr:street": "5th Avenue", "brand": "Versace", "brand:wikidata": "Q696376", "name": "Versace", "shop": "clothes"}}, {"type": "node", "id": 1428427573, "lat": 40.75944, "lon": -73.9768001, "tags": {"addr:city": "New York", "addr:housenumber": "640", "addr:postcode": "10019", "addr:street": "5th Avenue", "brand": "Victoria's Secret", "brand:wikidata": "Q332477", "clothes": "underwear;women", "name": "Victoria's Secret", "shop": "clothes"}}, {"type": "node", "id": 1487559377, "lat": 40.7625717, "lon": -73.9740478}, {"type": "node", "id": 1491769950, "lat": 40.6761253, "lon": -73.9804812, "tags": {"addr:housenumber": "211", "addr:postcode": "11215", "addr:street": "5th Avenue", "name": "Flea", "opening_hours": "Mo-Sa 11:00-19:00; Su 11:00-18:00", "shop": "clothes", "website": "https://www.fleaboutiques.com"}}, {"type": "node", "id": 1595378705, "lat": 40.7576634, "lon": -73.9767937}, {"type": "node", "id": 1595378716, "lat": 40.7576762, "lon": -73.9767846}, {"type": "node", "id": 1595378721, "lat": 40.7579002, "lon": -73.9774293}, {"type": "node", "id": 1595378751, "lat": 40.757931, "lon": -73.9774393}, {"type": "node", "id": 1595378754, "lat": 40.7580993, "lon": -73.9764696}, {"type": "node", "id": 1595378758, "lat": 40.7581116, "lon": -73.9764617}, {"type": "node", "id": 1595378765, "lat": 40.7583806, "lon": -73.9771174}, {"type": "node", "id": 1595378769, "lat": 40.7583893, "lon": -73.977077}, {"type": "node", "id": 1596628497, "lat": 40.7188243, "lon": -73.9568355, "tags": {"name": "Jumelle", "shop": "clothes", "website": "http://shopjumelle.com/"}}, {"type": "node", "id": 1608795907, "lat": 40.725998, "lon": -73.99596, "tags": {"addr:city": "New York", "addr:country": "US", "addr:housenumber": "628", "addr:postcode": "10012", "addr:state": "NY", "addr:street": "Broadway", "addr:suburb": "Manhattan", "brand": "Urban Outfitters", "brand:wikidata": "Q3552193", "name": "Urban Outfitters", "opening_hours": "Mo-Sa 11:00-21:00; Su 11:00-20:00", "phone": "+1 212-475-0009", "shop": "clothes", "website": "https://www.urbanoutfitters.com/urban/stores/urban-outfitters-soho"}}, {"type": "node", "id": 1655435369, "lat": 40.7626496, "lon": -73.9728051, "tags": {"addr:city": "New York", "addr:country": "US", "addr:housenumber": "15", "addr:postcode": "10022", "addr:state": "NY", "addr:street": "East 57th Street", "brand": "Chanel", "brand:wikidata": "Q218115", "name": "Chanel", "shop": "clothes", "website": "https://www.chanel.com/"}}, {"type": "node", "id": 1669534157, "lat": 40.7743876, "lon": -73.9825127, "tags": {"addr:city": "New York", "addr:country": "US", "addr:housenumber": "1963", "addr:postcode": "10023", "addr:state": "NY", "addr:street": "Broadway", "air_conditioning": "yes", "brand": "Zara", "brand:wikidata": "Q147662", "clothes": "women;men", "name": "Zara", "shop": "clothes", "website": "https://zara.com/", "wheelchair": "limited"}}, {"type": "node", "id": 1687417135, "lat": 40.6825556, "lon": -73.9351149}, {"type": "node", "id": 1708738151, "lat": 40.542915, "lon": -74.2068704, "tags": {"name": "Card Corner", "shop": "gift", "wheelchair": "yes"}}, {"type": "node", "id": 1716273713, "lat": 40.7632838, "lon": -73.9785863, "tags": {"addr:city": "New York", "addr:housenumber": "105", "addr:postcode": "10019", "addr:street": "West 55th Street", "designation": "jewelry appraisal, jewelry appraiser,gemologist", "name": "Appraisers WorldWide Jewelry Appraiser Gemologist", "shop": "jewelry", "source": "bing", "website": "https://appraisersworldwide.org/"}}, {"type": "node", "id": 1719299439, "lat": 40.7624104, "lon": -73.9736593}, {"type": "node", "id": 1740966205, "lat": 40.7370951, "lon": -73.9905663, "tags": {"addr:city": "New York", "addr:country": "US", "addr:housenumber": "41", "addr:postcode": "10003", "addr:state": "NY", "addr:street": "Union Square West", "brand": "Nyx", "brand:wikidata": "Q23671513", "name": "Nyx", "shop": "cosmetics"}}, {"type": "node", "id": 1750475749, "lat": 40.8155627, "lon": -73.9799886}, {"type": "node", "id": 1750475761, "lat": 40.81586, "lon": -73.9805074}, {"type": "node", "id": 1750475775, "lat": 40.8161182, "lon": -73.980249}, {"type": "node", "id": 1750475776, "lat": 40.8161319, "lon": -73.9802729}, {"type": "node", "id": 1750475777, "lat": 40.816145, "lon": -73.9794058}, {"type": "node", "id": 1750475782, "lat": 40.8162808, "lon": -73.9798018}, {"type": "node", "id": 1750475785, "lat": 40.8163388, "lon": -73.9797438}, {"type": "node", "id": 1750475787, "lat": 40.8163669, "lon": -73.9800081}, {"type": "node", "id": 1750475788, "lat": 40.8163777, "lon": -73.9800269}, {"type": "node", "id": 1750475789, "lat": 40.8163873, "lon": -73.9799877}, {"type": "node", "id": 1751769863, "lat": 40.7583731, "lon": -73.9882377, "tags": {"entrance": "main", "name": "NY Gift Shop", "shop": "gift"}}, {"type": "node", "id": 1792363871, "lat": 40.6583969, "lon": -74.1703475}, {"type": "node", "id": 1792363873, "lat": 40.6586704, "lon": -74.1710318}, {"type": "node", "id": 1792363904, "lat": 40.6587567, "lon": -74.1698528}, {"type": "node", "id": 1792363907, "lat": 40.658836, "lon": -74.1700468}, {"type": "node", "id": 1792363910, "lat": 40.6589649, "lon": -74.1708328}, {"type": "node", "id": 1792363926, "lat": 40.6590754, "lon": -74.1713469}, {"type": "node", "id": 1792363935, "lat": 40.6591501, "lon": -74.1712957}, {"type": "node", "id": 1792363974, "lat": 40.6595005, "lon": -74.172882}, {"type": "node", "id": 1792363983, "lat": 40.6596306, "lon": -74.1692558}, {"type": "node", "id": 1792363987, "lat": 40.659647, "lon": -74.1727822}, {"type": "node", "id": 1792363992, "lat": 40.6596685, "lon": -74.1693526}, {"type": "node", "id": 1792364003, "lat": 40.6599653, "lon": -74.1740529}, {"type": "node", "id": 1792364028, "lat": 40.6601797, "lon": -74.1690011}, {"type": "node", "id": 1792364031, "lat": 40.6603861, "lon": -74.1702181}, {"type": "node", "id": 1792364034, "lat": 40.6605329, "lon": -74.1705885}, {"type": "node", "id": 1792364036, "lat": 40.6606039, "lon": -74.1700676}, {"type": "node", "id": 1792364037, "lat": 40.660752, "lon": -74.1704394}, {"type": "node", "id": 1792364039, "lat": 40.6609158, "lon": -74.1712874}, {"type": "node", "id": 1792364041, "lat": 40.66107, "lon": -74.17193}, {"type": "node", "id": 1792364043, "lat": 40.6610734, "lon": -74.1712154}, {"type": "node", "id": 1792364045, "lat": 40.6612878, "lon": -74.1717802}, {"type": "node", "id": 1792364047, "lat": 40.6617147, "lon": -74.1728445}, {"type": "node", "id": 1799454473, "lat": 40.757356, "lon": -73.8350887, "tags": {"addr:housenumber": "40-24", "addr:postcode": "11354", "addr:street": "College Point Boulevard", "name": "The Shops at Skyview", "phone": "+1 718-460-2000", "shop": "mall", "website": "https://theshopsatskyviewny.com", "wheelchair": "limited"}}, {"type": "node", "id": 1825848805, "lat": 40.794924, "lon": -73.9719478, "tags": {"addr:city": "New York", "addr:country": "US", "addr:housenumber": "2563", "addr:postcode": "10022", "addr:state": "NY", "addr:street": "Broadway", "brand": "T-Mobile", "brand:wikidata": "Q3511885", "name": "T-Mobile", "opening_hours": "Mo-Fr 10:00-19:00; Sa 10:00-18:00; Su 12:00-17:00", "shop": "mobile_phone", "website": "https://www.t-mobile.com/stores/bd/t-mobile-new-york-ny-10025-9076"}}, {"type": "node", "id": 1953998894, "lat": 40.8563984, "lon": -73.9670386}, {"type": "node", "id": 1953998898, "lat": 40.8562186, "lon": -73.9671534}, {"type": "node", "id": 1953998904, "lat": 40.8567338, "lon": -73.9679459}, {"type": "node", "id": 1953998905, "lat": 40.8561739, "lon": -73.9684515}, {"type": "node", "id": 1953998909, "lat": 40.8560175, "lon": -73.9681321}, {"type": "node", "id": 1953998916, "lat": 40.8564393, "lon": -73.9677396}, {"type": "node", "id": 1955320561, "lat": 40.8554595, "lon": -73.9681999}, {"type": "node", "id": 1955320567, "lat": 40.8557731, "lon": -73.9685068}, {"type": "node", "id": 1955320570, "lat": 40.8556203, "lon": -73.9680911}, {"type": "node", "id": 1955320572, "lat": 40.8556252, "lon": -73.9686111}, {"type": "node", "id": 1962544644, "lat": 40.608874, "lon": -73.9203459}, {"type": "node", "id": 1962544648, "lat": 40.6101542, "lon": -73.9183731}, {"type": "node", "id": 2010119738, "lat": 40.7742001, "lon": -73.9813683, "tags": {"addr:city": "New York", "addr:country": "US", "addr:housenumber": "158", "addr:postcode": "10023", "addr:state": "NY", "addr:street": "Columbus Avenue", "branch": "Upper West Side", "brand": "Arc'teryx", "brand:wikidata": "Q3271455", "clothes": "men;women", "name": "Arc'teryx", "opening_hours": "Mo-Sa 11:00-19:00; Su 12:00-18:00", "phone": "+1-917-261-5284", "shop": "clothes", "website": "https://stores.arcteryx.com/shop/upw", "wheelchair": "yes"}}, {"type": "node", "id": 2015475513, "lat": 40.7290724, "lon": -73.9573175, "tags": {"addr:city": "Brooklyn", "addr:housenumber": "126", "addr:postcode": "11222", "addr:state": "NY", "addr:street": "Franklin Street", "name": "Word Bookstore", "opening_hours": "Mo-Su 10:00-19:00", "shop": "books", "website": "https://www.wordbookstores.com/"}}, {"type": "node", "id": 2041169440, "lat": 40.8732195, "lon": -73.9086961, "tags": {"brand": "Marshalls", "brand:wikidata": "Q15903261", "name": "Marshalls", "shop": "department_store"}}, {"type": "node", "id": 2041169447, "lat": 40.873435, "lon": -73.9076555, "tags": {"addr:city": "Bronx", "addr:housenumber": "40", "addr:postcode": "10463-7016", "addr:state": "NY", "addr:street": "West 225th Street", "brand": "Target", "brand:wikidata": "Q1046951", "name": "Target", "opening_hours": "08:00-23:00", "phone": "+1 718-733-7199", "shop": "department_store", "website": "https://www.target.com/sl/bronx-riverdale/1798", "wheelchair": "yes"}}, {"type": "node", "id": 2041169450, "lat": 40.8734602, "lon": -73.9079897, "tags": {"alt_name": "Children's Place", "brand": "The Children's Place", "brand:wikidata": "Q3520257", "name": "The Children's Place", "shop": "clothes"}}, {"type": "node", "id": 2065800817, "lat": 40.7590678, "lon": -73.9195204, "tags": {"brand": "T-Mobile", "brand:wikidata": "Q3511885", "name": "T-Mobile", "shop": "mobile_phone", "website": "https://www.t-mobile.com/stores/bd/t-mobile-astoria-ny-11103-9515", "wheelchair": "yes"}}, {"type": "node", "id": 2070046022, "lat": 40.763714, "lon": -73.915354, "tags": {"addr:housenumber": "30-08", "addr:street": "Steinway Street", "level": "0", "name": "Metro by T-Mobile", "shop": "mobile_phone"}}, {"type": "node", "id": 2070048647, "lat": 40.763759, "lon": -73.915319, "tags": {"addr:housenumber": "30-06", "addr:street": "Steinway Street", "name": "Alex's Jewelry", "phone": "+1 718-956-0001", "shop": "jewelry", "wheelchair": "no"}}, {"type": "node", "id": 2105118496, "lat": 40.6801473, "lon": -73.9430697, "tags": {"addr:city": "Brooklyn", "addr:country": "US", "addr:housenumber": "1451", "addr:postcode": "11216", "addr:state": "NY", "addr:street": "Fulton Street", "name": "One Stop Variety", "shop": "gift"}}, {"type": "node", "id": 2178336349, "lat": 40.7205216, "lon": -73.985158, "tags": {"addr:city": "New York", "addr:housenumber": "154", "addr:postcode": "10002", "addr:state": "NY", "addr:street": "Stanton Street", "email": "info@nystudiogallery.com", "name": "New York Studio Gallery", "phone": "+1-212-627-3276", "shop": "art", "website": "http://www.nystudiogallery.com/"}}, {"type": "node", "id": 2178743031, "lat": 40.7564172, "lon": -73.9873255, "tags": {"addr:street": "West 42nd Street", "brand": "Skechers", "brand:wikidata": "Q2945643", "name": "Skechers", "shop": "shoes", "website": "https://www.skechers.com/"}}, {"type": "node", "id": 2183010454, "lat": 40.7059955, "lon": -74.0111464, "tags": {"addr:street": "Broad Street", "brand": "Indochino", "brand:wikidata": "Q64448127", "clothes": "suits", "name": "Indochino", "shop": "clothes", "wheelchair": "no"}}, {"type": "node", "id": 2183010466, "lat": 40.7064078, "lon": -74.010896, "tags": {"addr:city": "New York", "addr:housenumber": "15", "addr:postcode": "10005", "addr:state": "NY", "addr:street": "Broad Street", "air_conditioning": "yes", "branch": "Wall Street", "brand": "Herm\u00e8s", "brand:wikidata": "Q843887", "check_date": "2025-08-14", "clothes": "women;fashion", "name": "Herm\u00e8s", "opening_hours": "Mo off; Tu-Fr 10:00-18:00; Sa 11:00-18:00; Su off", "payment:cash": "yes", "payment:contactless": "yes", "payment:credit_cards": "yes", "payment:debit_cards": "yes", "phone": "+1 212 785 3030", "shop": "clothes", "website": "https://www.hermes.com/us/en/find-store/united-states/new-york/hermes-new-york-wall-street-HVLHX8RA/", "wheelchair": "yes"}}, {"type": "node", "id": 2183010492, "lat": 40.7064462, "lon": -74.0098992, "tags": {"addr:housenumber": "45", "addr:postcode": "10005", "addr:street": "Wall Street", "brand": "AT&T", "brand:wikidata": "Q298594", "name": "AT&T", "shop": "mobile_phone"}}, {"type": "node", "id": 2183039962, "lat": 40.7090863, "lon": -74.0090529, "tags": {"addr:housenumber": "24", "addr:street": "Maiden Lane", "level": "0", "name": "Mr. Goods", "opening_hours": "Mo-Fr 11:00-19:00; Sa 11:00-18:00; Su 10:00-18:00", "shop": "shoes"}}, {"type": "node", "id": 2183040744, "lat": 40.7076577, "lon": -74.0105041, "tags": {"brand": "TJ Maxx", "brand:wikidata": "Q10860683", "name": "TJ Maxx", "shop": "department_store", "wheelchair": "yes"}}, {"type": "node", "id": 2186614189, "lat": 40.7048393, "lon": -74.0096654, "tags": {"addr:housenumber": "3", "addr:postcode": "10004", "addr:street": "Hanover Square", "name": "Ray's Jewelry", "shop": "jewelry", "wheelchair": "yes"}}, {"type": "node", "id": 2187916505, "lat": 40.7142539, "lon": -73.9603806, "tags": {"addr:housenumber": "197", "addr:postcode": "11211", "addr:street": "Grand Street", "email": "cc@legrandstrip.com", "name": "Le Grand Strip", "phone": "+1-718-599-3525", "shop": "clothes", "website": "https://www.legrandstrip.com/"}}, {"type": "node", "id": 2194406569, "lat": 40.7722222, "lon": -73.977838, "tags": {"information": "yes", "name": "Green Visitor Center & Gift Shop", "shop": "gift", "tourism": "information"}}, {"type": "node", "id": 2195218445, "lat": 40.792327, "lon": -73.9738701, "tags": {"addr:city": "New York", "addr:country": "US", "addr:housenumber": "2477", "addr:postcode": "10025", "addr:state": "NY", "addr:street": "Broadway", "brand": "bluemercury", "brand:wikidata": "Q4930376", "name": "bluemercury", "opening_hours": "Mo-We 10:00-18:00; Th-Sa 10:00-19:00; Su 11:00-18:00", "phone": "+1-212-362-1333", "shop": "cosmetics", "website": "https://stores.bluemercury.com/ny/new-york/34827/"}}, {"type": "node", "id": 2234445880, "lat": 40.7033328, "lon": -74.0167582}, {"type": "node", "id": 2234445882, "lat": 40.7033117, "lon": -74.0168394}, {"type": "node", "id": 2234445884, "lat": 40.7033458, "lon": -74.0167576}, {"type": "node", "id": 2234445886, "lat": 40.7033208, "lon": -74.0168497}, {"type": "node", "id": 2234445888, "lat": 40.7033581, "lon": -74.0167628}, {"type": "node", "id": 2234445890, "lat": 40.7033319, "lon": -74.0168557}, {"type": "node", "id": 2234445891, "lat": 40.7033684, "lon": -74.0167733}, {"type": "node", "id": 2234445892, "lat": 40.7033439, "lon": -74.0168568}, {"type": "node", "id": 2238282051, "lat": 40.7792448, "lon": -73.9601917, "tags": {"addr:street": "Madison Avenue", "name": "Little Eric", "shop": "clothes"}}, {"type": "node", "id": 2268954141, "lat": 40.7296848, "lon": -73.9574215, "tags": {"addr:housenumber": "140", "addr:postcode": "11222", "addr:street": "Franklin Street", "name": "Alter", "phone": "+1-718-349-0203", "shop": "clothes"}}, {"type": "node", "id": 2275836866, "lat": 40.7570604, "lon": -73.9812078}, {"type": "node", "id": 2275836872, "lat": 40.7572973, "lon": -73.9804983}, {"type": "node", "id": 2277315366, "lat": 40.7197171, "lon": -73.9526115, "tags": {"amenity": "marketplace", "name": "Greenpoint / McCarren Park Greenmarket", "opening_hours": "Sa 8:00-15:00", "operator": "Local Farmers", "website": "https://www.grownyc.org/greenmarket/brooklyn/greenpoint"}}, {"type": "node", "id": 2279017951, "lat": 40.8054748, "lon": -73.9661193, "tags": {"addr:city": "New York", "addr:country": "US", "addr:housenumber": "2875", "addr:postcode": "10025", "addr:state": "NY", "addr:street": "Broadway", "alt_name": "Verizon Wireless", "brand": "Verizon", "brand:wikidata": "Q919641", "check_date": "2024-11-03", "name": "Verizon", "shop": "mobile_phone", "website": "https://www.verizon.com/stores/details/new-york/new-york/wireless-zone-nyc-2875-broadway-a00000346860/"}}, {"type": "node", "id": 2279017959, "lat": 40.8053303, "lon": -73.9662171, "tags": {"addr:city": "New York", "addr:country": "US", "addr:housenumber": "2875", "addr:postcode": "10025", "addr:state": "NY", "addr:street": "Broadway", "check_date": "2025-05-03", "name": "2nd Street", "second_hand": "only", "shop": "clothes", "website": "https://2ndstreetusa.com/"}}, {"type": "node", "id": 2287666019, "lat": 40.6092891, "lon": -73.9586454, "tags": {"brand": "TJ Maxx", "brand:wikidata": "Q10860683", "name": "TJ Maxx", "shop": "department_store"}}, {"type": "node", "id": 2288328896, "lat": 40.6312428, "lon": -73.9470531}, {"type": "node", "id": 2296577489, "lat": 40.7626072, "lon": -73.9673749, "tags": {"description": "all 4,5,6,<6>,N,R,W trains", "level": "0", "name": "East 60th Street & Lexington Avenue at Southeast Corner", "railway": "subway_entrance", "wheelchair": "limited"}}, {"type": "node", "id": 2301162824, "lat": 40.7854034, "lon": -73.9784599, "tags": {"addr:city": "New York", "addr:country": "US", "addr:housenumber": "2270", "addr:postcode": "10024", "addr:state": "NY", "addr:street": "Broadway", "clothes": "underwear", "name": "Town Shop", "shop": "clothes", "website": "https://www.townshop.com/"}}, {"type": "node", "id": 2302679639, "lat": 40.5998072, "lon": -73.9463448, "tags": {"addr:city": "Brooklyn", "addr:housenumber": "2502", "addr:postcode": "11229", "addr:state": "NY", "addr:street": "Avenue U", "name": "Downtown", "opening_hours": "Mo-Sa 11:00-19:30; Su 11:00-18:30", "payment:credit_cards": "yes", "payment:debit_cards": "yes", "phone": "+1-718-934-8280", "shop": "clothes", "website": "http://downtownclothingstore.com/"}}, {"type": "node", "id": 2308995474, "lat": 40.7737739, "lon": -73.9638244, "tags": {"addr:city": "New York", "addr:housenumber": "954", "addr:postcode": "10021", "addr:street": "Madison Avene", "name": "Carolina Herrera", "shop": "clothes", "website": "https://www.carolinaherrera.com/"}}, {"type": "node", "id": 2308997529, "lat": 40.7738905, "lon": -73.9637273, "tags": {"addr:city": "New York", "addr:housenumber": "958", "addr:postcode": "10021", "addr:street": "Madison Avene", "name": "Nanette Lepore", "shop": "clothes", "website": "https://www.nanettelepore.com/"}}, {"type": "node", "id": 2308997530, "lat": 40.7740878, "lon": -73.9635283, "tags": {"addr:city": "New York", "addr:housenumber": "966", "addr:postcode": "10021", "addr:street": "Madison Avene", "name": "Pat Areias Sterling", "opening_hours": "Mo-Sa 10:00-18:00; Su 11:00-17:15", "phone": "+1-212-717-7200", "shop": "jewelry"}}, {"type": "node", "id": 2309556628, "lat": 40.7745795, "lon": -73.9631791, "tags": {"addr:city": "New York", "addr:housenumber": "980", "addr:street": "Madison Avene", "name": "Morgan La Fay", "shop": "clothes", "website": "https://www.morganelefay.com/"}}, {"type": "node", "id": 2309556633, "lat": 40.7746843, "lon": -73.9631005, "tags": {"addr:city": "New York", "addr:housenumber": "986", "addr:postcode": "10075", "addr:street": "Madison Avene", "name": "Sandro", "phone": "+1 212-772-8500", "shop": "clothes"}}, {"type": "node", "id": 2309556639, "lat": 40.7741793, "lon": -73.963308, "tags": {"addr:city": "New York", "addr:housenumber": "970", "addr:street": "Madison Avene", "name": "Stephen Russell", "shop": "jewelry", "website": "http://stephenrussell.com/"}}, {"type": "node", "id": 2316047252, "lat": 40.593652, "lon": -73.9996361}, {"type": "node", "id": 2316047261, "lat": 40.5937958, "lon": -73.9985787}, {"type": "node", "id": 2316047271, "lat": 40.5939965, "lon": -73.9989087}, {"type": "node", "id": 2321579535, "lat": 40.6234583, "lon": -73.9647027, "tags": {"name": "Eichler's Religious Articles", "shop": "books"}}, {"type": "node", "id": 2321673303, "lat": 40.5933148, "lon": -74.0007072, "tags": {"addr:city": "Brooklyn", "addr:housenumber": "8973", "addr:postcode": "11214", "addr:state": "NY", "addr:street": "Bay Parkway", "addr:unit": "1", "air_conditioning": "yes", "brand": "Kohl's", "brand:wikidata": "Q967265", "check_date": "2022-08-27", "name": "Kohl's", "opening_hours": "Mo-Sa 10:00-21:00; Su 10:00-20:00", "payment:cash": "yes", "payment:credit_cards": "yes", "phone": "+1 718-266-6357", "ref": "781", "shop": "department_store", "toilets": "yes", "website": "https://www.kohls.com/stores/ny/brooklyn-781.shtml", "wheelchair": "yes"}}, {"type": "node", "id": 2321673304, "lat": 40.5938723, "lon": -74.0010998, "tags": {"addr:city": "Brooklyn", "addr:housenumber": "8973-95", "addr:postcode": "11214", "addr:state": "NY", "addr:street": "Bay Parkway", "air_conditioning": "yes", "brand": "Target", "brand:wikidata": "Q1046951", "name": "Target", "opening_hours": "08:00-23:00", "payment:american_express": "yes", "payment:cash": "yes", "payment:coins": "yes", "payment:credit_cards": "yes", "payment:debit_cards": "yes", "payment:mastercard": "yes", "payment:visa": "yes", "phone": "+1-929-479-3702", "shop": "department_store", "website": "https://www.target.com/sl/brooklyn-bay-parkway/3356", "wheelchair": "yes"}}, {"type": "node", "id": 2322155479, "lat": 40.7466285, "lon": -74.0047259, "tags": {"addr:city": "New York", "addr:housenumber": "192", "addr:postcode": "10011", "addr:street": "10th Avenue", "check_date": "2024-04-28", "name": "192 Books", "opening_hours": "11:00-19:00", "phone": "+12122554022", "shop": "books", "source": "local_knowledge", "start_date": "2003-05-22", "website": "http://www.192books.com", "wheelchair": "yes"}}, {"type": "node", "id": 2325109206, "lat": 40.6108391, "lon": -73.9196543, "tags": {"brand": "Macy's", "brand:wikidata": "Q629269", "name": "Macy's", "shop": "department_store", "website": "https://www.macys.com/stores/ny/brooklyn/kings-plaza-shopping-center_6.html"}}, {"type": "node", "id": 2325109207, "lat": 40.6094502, "lon": -73.9211036, "tags": {"addr:city": "Brooklyn", "addr:housenumber": "5100", "addr:postcode": "11234", "addr:state": "NY", "addr:street": "Flatbush Avenue", "air_conditioning": "yes", "branch": "King\u2019s Plaza Mall", "brand": "Primark", "brand:wikidata": "Q137023", "clothes": "women;children;men", "name": "Primark", "opening_hours": "Mo-Sa 10:00-21:30; Su 10:00-20:00", "phone": "+1-718-253-1701", "shop": "clothes", "website": "https://stores.primark.com/en_us/united-states/brooklyn/5100-kings-plaza"}}, {"type": "node", "id": 2325109208, "lat": 40.6090664, "lon": -73.9206716, "tags": {"addr:city": "Brooklyn", "addr:housenumber": "5202", "addr:postcode": "11234", "addr:state": "NY", "addr:street": "Flatbush Avenue", "air_conditioning": "yes", "alt_name": "Burlington Coat Factory", "branch": "King\u2019s Plaza Mall", "brand": "Burlington", "brand:wikidata": "Q4999220", "level": "3", "name": "Burlington", "opening_hours": "Mo-Th 08:00-22:00; Fr-Sa 08:00-23:00; Su 08:00-22:00", "phone": "+1 718-377-3105", "ref": "1101", "shop": "department_store", "website": "https://www.burlington.com/store-details/brooklyn-ny-1101", "wheelchair": "yes"}}, {"type": "node", "id": 2328223913, "lat": 40.7390507, "lon": -73.9958355, "tags": {"addr:housenumber": "581", "addr:street": "6th Avenue", "contact:facebook": "https://facebook.com/davesnewyork", "contact:instagram": "https://www.instagram.com/davesnewyork/", "name": "Dave's New York", "opening_hours": "Mo-Fr 10:00-19:00; Sa 10:00-18:00; Su 11:00-17:00", "phone": "+1 212-989-6444", "shop": "clothes", "website": "https://davesnewyork.com"}}, {"type": "node", "id": 2328279412, "lat": 40.7399925, "lon": -73.9983707, "tags": {"addr:housenumber": "101", "addr:postcode": "10011", "addr:street": "7th Avenue", "branch": "Downtown", "brand": "Barneys New York", "brand:wikidata": "Q59465", "email": "info-downtown@barneys.com", "name": "Barneys New York", "opening_hours": "Mo, Tu 10:00-19:00; We-Sa 10:00-20:00; Su 11:00-19:00", "phone": "+1 646-264-6400", "shop": "department_store", "website": "https://www.barneys.com/store/downtown/R-store-001"}}, {"type": "node", "id": 2328394788, "lat": 40.5936769, "lon": -73.9984883}, {"type": "node", "id": 2357685418, "lat": 40.6851562, "lon": -73.9916788, "tags": {"name": "2nd Street", "opening_hours": "Mo-Su 11:00-19:00", "phone": "+1-347-682-2535", "second_hand": "only", "shop": "clothes"}}, {"type": "node", "id": 2366519600, "lat": 40.7414431, "lon": -74.0047352, "tags": {"addr:city": "New York", "addr:country": "US", "addr:housenumber": "66", "addr:postcode": "10011", "addr:state": "NY", "addr:street": "9th Avenue", "brand": "T-Mobile", "brand:wikidata": "Q3511885", "name": "T-Mobile", "shop": "mobile_phone"}}, {"type": "node", "id": 2411595315, "lat": 40.744269, "lon": -74.0027071, "tags": {"addr:city": "New York", "addr:housenumber": "160", "addr:postcode": "10011", "addr:street": "9th Avenue", "name": "Behaviour", "phone": "+1 646 559-8414", "shop": "clothes"}}, {"type": "node", "id": 2432287570, "lat": 40.7156017, "lon": -74.0114667, "tags": {"addr:housenumber": "270", "addr:postcode": "10007", "addr:street": "Greenwich Street", "brand": "T-Mobile", "brand:wikidata": "Q3511885", "name": "T-Mobile", "opening_hours": "Mo-Fr 9:00-19:00; Sa 10:00-19:30; Su 11:00-19:00", "operator": "T-Mobile", "phone": "+1 212-587-5967", "shop": "mobile_phone", "website": "https://www.t-mobile.com/store-locator/ny/new-york/greenwich-st-warren", "wheelchair": "yes"}}, {"type": "node", "id": 2439240910, "lat": 40.7824726, "lon": -73.9753497, "tags": {"addr:city": "New York", "addr:housenumber": "410", "addr:postcode": "10024", "addr:state": "NY", "addr:street": "Columbus Avenue", "air_conditioning": "yes", "branch": "Upper West Side Guideshop", "clothes": "children;maternity", "delivery": "yes", "email": "nycstorks@monicaandandy.com", "name": "Monica + Andy", "opening_hours": "Mo-Su 10:00-18:00", "phone": "+1-646-918-7879", "shop": "clothes"}}, {"type": "node", "id": 2439240911, "lat": 40.7825341, "lon": -73.975305, "tags": {"addr:city": "New York", "addr:housenumber": "410", "addr:postcode": "10024", "addr:state": "NY", "addr:street": "Columbus Avenue", "air_conditioning": "yes", "branch": "UWS", "clothes": "women", "name": "bocnyc", "opening_hours": "Mo-Fr 10:00-18:00; Sa-Su 11:00-18:00", "phone": "+1-212-799-1567", "shop": "clothes", "website": "https://bocnyc.com/"}}, {"type": "node", "id": 2439964743, "lat": 40.7838716, "lon": -73.9743104, "tags": {"addr:housenumber": "454", "addr:postcode": "10024", "addr:street": "Columbus Avenue", "name": "Greenstones", "shop": "clothes"}}, {"type": "node", "id": 2439964745, "lat": 40.7838257, "lon": -73.9743452, "tags": {"addr:housenumber": "454", "addr:postcode": "10024", "addr:street": "Columbus Avenue", "name": "Naturino", "shop": "shoes", "website": "https://www.naturino.com/", "wheelchair": "limited"}}, {"type": "node", "id": 2443892140, "lat": 40.7777082, "lon": -73.9826469, "tags": {"addr:city": "New York", "addr:housenumber": "2043", "addr:postcode": "10023", "addr:state": "NY", "addr:street": "Broadway", "alt_name": "Verizon Wireless", "brand": "Verizon", "brand:wikidata": "Q919641", "level": "0", "name": "Verizon", "opening_hours": "Mo-Fr 09:00-19:00; Sa, Su 12:00-18:00", "operator": "Wireless One", "phone": "+1 212-712-2300", "shop": "mobile_phone"}}, {"type": "node", "id": 2447625889, "lat": 40.7409427, "lon": -74.0058428, "tags": {"brand": "Kiehl's", "brand:wikidata": "Q3196447", "name": "Kiehl's", "shop": "cosmetics"}}, {"type": "node", "id": 2459993325, "lat": 40.7387516, "lon": -73.9918721, "tags": {"addr:housenumber": "130", "addr:street": "5th Avenue", "brand": "Express", "brand:wikidata": "Q1384784", "name": "Express", "shop": "clothes"}}, {"type": "node", "id": 2459993336, "lat": 40.7385911, "lon": -73.9914858, "tags": {"addr:housenumber": "111", "addr:street": "5th Avenue", "brand": "H&M", "brand:wikidata": "Q188326", "name": "H&M", "shop": "clothes"}}, {"type": "node", "id": 2478897579, "lat": 40.7395921, "lon": -73.9949579, "tags": {"brand": "Old Navy", "brand:wikidata": "Q2735242", "name": "Old Navy", "opening_hours": "Mo-Sa 09:00-22:00; Su 10:00-20:00", "shop": "clothes", "website": "https://oldnavy.gap.com/stores/ny/newyork/oldnavy-5589.html"}}, {"type": "node", "id": 2478897600, "lat": 40.7392974, "lon": -73.9951993, "tags": {"brand": "AT&T", "brand:wikidata": "Q298594", "name": "AT&T", "operator": "AT&T", "shop": "mobile_phone"}}, {"type": "node", "id": 2486519554, "lat": 40.730698, "lon": -73.8617279}, {"type": "node", "id": 2486519561, "lat": 40.732698, "lon": -73.8628137}, {"type": "node", "id": 2486519562, "lat": 40.7303881, "lon": -73.8622323}, {"type": "node", "id": 2486519570, "lat": 40.7323336, "lon": -73.8626152}, {"type": "node", "id": 2486519573, "lat": 40.7330104, "lon": -73.862969}, {"type": "node", "id": 2486519595, "lat": 40.7326937, "lon": -73.8635998}, {"type": "node", "id": 2486519599, "lat": 40.7306534, "lon": -73.8617139}, {"type": "node", "id": 2486519602, "lat": 40.7304951, "lon": -73.8625127}, {"type": "node", "id": 2486519604, "lat": 40.7336774, "lon": -73.8640987}, {"type": "node", "id": 2486519617, "lat": 40.7341514, "lon": -73.8626757}, {"type": "node", "id": 2486519623, "lat": 40.7328645, "lon": -73.8634657}, {"type": "node", "id": 2486519634, "lat": 40.7329134, "lon": -73.8637278}, {"type": "node", "id": 2486519636, "lat": 40.7321126, "lon": -73.863294}, {"type": "node", "id": 2486519639, "lat": 40.7318977, "lon": -73.8632308}, {"type": "node", "id": 2486519642, "lat": 40.7321269, "lon": -73.8624571}, {"type": "node", "id": 2486519643, "lat": 40.7328332, "lon": -73.8635137}, {"type": "node", "id": 2486519646, "lat": 40.7333703, "lon": -73.8622708}, {"type": "node", "id": 2488562088, "lat": 40.7095985, "lon": -73.9574361, "tags": {"addr:city": "Brooklyn", "addr:housenumber": "150", "addr:postcode": "11211", "addr:state": "NY", "addr:street": "Marcy Avenue", "branch": "Williamsburg", "instagram": "opcbuyselltrade", "name": "Other People\u2019s Clothes", "opening_hours": "11:00-20:00", "phone": "+1-347-763-0040", "second_hand": "yes", "shop": "clothes", "website": "https://www.opcbuyselltrade.com/"}}, {"type": "node", "id": 2493984034, "lat": 40.6485019, "lon": -73.9641089}, {"type": "node", "id": 2493984051, "lat": 40.64917, "lon": -73.9634389, "tags": {"addr:housenumber": "1714", "addr:postcode": "11226", "addr:street": "Church Avenue", "clothes": "women", "name": "La Chic", "opening_hours": "Mo-Th 10:00-18:30; Fr 10:00-15:00+; Su 11:00-18:30", "shop": "clothes"}}, {"type": "node", "id": 2493986453, "lat": 40.6484027, "lon": -73.9642736}, {"type": "node", "id": 2493986577, "lat": 40.6484748, "lon": -73.9640905}, {"type": "node", "id": 2493986772, "lat": 40.648601, "lon": -73.9638575}, {"type": "node", "id": 2493986973, "lat": 40.6487035, "lon": -73.964485}, {"type": "node", "id": 2493987091, "lat": 40.6487594, "lon": -73.9645245}, {"type": "node", "id": 2493987462, "lat": 40.6489312, "lon": -73.9640909}, {"type": "node", "id": 2494046086, "lat": 40.6034924, "lon": -73.9960865, "tags": {"addr:housenumber": "2085", "addr:postcode": "11214", "addr:street": "86th Street", "clothes": "men", "name": "Fame Men's Suit Outlet", "shop": "clothes"}}, {"type": "node", "id": 2494064376, "lat": 40.6488726, "lon": -73.9648226}, {"type": "node", "id": 2494064713, "lat": 40.6490028, "lon": -73.9644884}, {"type": "node", "id": 2494064718, "lat": 40.6490871, "lon": -73.964504}, {"type": "node", "id": 2494064726, "lat": 40.6491096, "lon": -73.9645081}, {"type": "node", "id": 2494064734, "lat": 40.6491657, "lon": -73.9645185}, {"type": "node", "id": 2494064743, "lat": 40.6492073, "lon": -73.9648843}, {"type": "node", "id": 2494064753, "lat": 40.6492389, "lon": -73.9645319}, {"type": "node", "id": 2494064757, "lat": 40.6492449, "lon": -73.964533}, {"type": "node", "id": 2494064802, "lat": 40.6930399, "lon": -73.9683511, "tags": {"addr:housenumber": "432", "addr:postcode": "11205", "addr:street": "Myrtle Avenue", "name": "Green in Brooklyn", "opening_hours": "Mo-Sa 11:00-19:00; Su 11:00-18:00", "phone": "+1-718-855-4383", "shop": "gift", "website": "https://www.greeninbklyn.com"}}, {"type": "node", "id": 2494064818, "lat": 40.6930618, "lon": -73.9681837, "tags": {"addr:housenumber": "436", "addr:postcode": "11205", "addr:street": "Myrtle Avenue", "alt_name": "The Portables Choice Group", "brand": "T-Mobile", "brand:wikidata": "Q3511885", "name": "T-Mobile", "opening_hours": "Mo-Sa 10:00-19:00; Su 11:00-17:00", "phone": "+1-718-230-4748", "shop": "mobile_phone"}}, {"type": "node", "id": 2494067821, "lat": 40.6912143, "lon": -73.9972807, "tags": {"addr:housenumber": "89", "addr:postcode": "11201", "addr:street": "Atlantic Avenue", "name": "Antik", "opening_hours": "We-Sa 11:00-19:00, Su 12:00-18:00||Mo-Tu \"by appointment\"", "shop": "antiques", "website": "https://antikbrooklyn.com"}}, {"type": "node", "id": 2494071322, "lat": 40.6840092, "lon": -73.9542051, "tags": {"addr:housenumber": "1170", "addr:postcode": "11216", "addr:street": "Bedford Avenue", "name": "Women Plus", "second_hand": "yes", "shop": "clothes"}}, {"type": "node", "id": 2494078790, "lat": 40.6497366, "lon": -73.9619389, "tags": {"addr:housenumber": "1904", "addr:postcode": "11226", "addr:street": "Church Avenue", "name": "Palm Jewelry", "phone": "+1-718-284-7699", "shop": "jewelry"}}, {"type": "node", "id": 2494078799, "lat": 40.649886, "lon": -73.9614044, "tags": {"addr:housenumber": "1922", "addr:postcode": "11226", "addr:street": "Church Avenue", "alt_name": "C&C Multi Services", "name": "B.A.E. Multi-Service", "office": "financial", "shop": "mobile_phone"}}, {"type": "node", "id": 2494078800, "lat": 40.6498999, "lon": -73.9613462, "tags": {"addr:housenumber": "1924", "addr:postcode": "11226", "addr:street": "Church Avenue", "name": "Alumni", "opening_hours": "Mo,We-Sa 11:00-19:00; Su 12:00-18:00", "phone": "+1-718-856-3043", "shop": "clothes", "website": "https://www.alumniofny.com/pages/flatbush"}}, {"type": "node", "id": 2494098744, "lat": 40.7748877, "lon": -73.9824677}, {"type": "node", "id": 2494098765, "lat": 40.7750621, "lon": -73.9828818}, {"type": "node", "id": 2494098767, "lat": 40.7750701, "lon": -73.982876}, {"type": "node", "id": 2494098770, "lat": 40.7751212, "lon": -73.9824554}, {"type": "node", "id": 2494098775, "lat": 40.7751943, "lon": -73.9827855}, {"type": "node", "id": 2494098783, "lat": 40.7752448, "lon": -73.9827487}, {"type": "node", "id": 2494104093, "lat": 40.646059, "lon": -73.9719217, "tags": {"addr:city": "Brooklyn", "addr:housenumber": "743", "addr:postcode": "11218", "addr:state": "NY", "addr:street": "Church Avenue", "contact:facebook": "https://www.facebook.com/loftypigeonbooks/", "email": "info@loftypigeonbooks.com", "name": "Lofty Pigeon Books", "opening_hours": "Mo-Fr 11:00-19:00; Sa-Su 10:00-18:00", "phone": "+1-347-240-3816", "shop": "books", "toilets": "yes", "website": "https://www.loftypigeonbooks.com/"}}, {"type": "node", "id": 2494148891, "lat": 40.679359, "lon": -73.9975109, "tags": {"addr:housenumber": "428", "addr:postcode": "11231", "addr:street": "Court Street", "contact:instagram": "https://www.instagram.com/yesterdaysnewsbk/", "name": "Yesterday's News Antiques & Collectables", "opening_hours": "Tu-Fr 10:00-18:00; Sa 10:00-17:00; Su 10:00-18:00", "phone": "+1-718-875-0546", "shop": "antiques", "website": "https://www.yesterdaysnews.biz"}}, {"type": "node", "id": 2494197789, "lat": 40.6774315, "lon": -73.9984425, "tags": {"alt_name": "The Physical Educators", "description": "antique shop focusing on art and sports equipment", "name": "2 Silhouettes on the Shade", "phone": "+1-917-816-2666", "shop": "antiques"}}, {"type": "node", "id": 2494203003, "lat": 40.692107, "lon": -73.9913831, "tags": {"addr:housenumber": "60", "addr:postcode": "11201", "addr:street": "Court Street", "clothes": "women", "name": "Eyvette Boutique", "opening_hours": "Mo-Fr 09:00-17:00", "phone": "+1-718-254-9208", "shop": "clothes", "website": "https://www.brooklynwomensboutique.com"}}, {"type": "node", "id": 2494221442, "lat": 40.6745715, "lon": -73.9567105, "tags": {"addr:housenumber": "708", "addr:postcode": "11238", "addr:street": "Franklin Avenue", "name": "Franklin's Makers", "shop": "clothes"}}, {"type": "node", "id": 2494224921, "lat": 40.6389182, "lon": -74.0759622, "tags": {"addr:housenumber": "140", "addr:postcode": "10301", "addr:street": "Bay Street", "name": "Everything goes clothing", "name:en": "Everything goes clothing", "shop": "clothes"}}, {"type": "node", "id": 2494243527, "lat": 40.6837969, "lon": -73.9923073, "tags": {"clothes": "women", "name": "Dear Dreamer", "opening_hours": "Mo 12:00-17:00; Tu-Sa 10:00-18:00; Su 12:00-17:00", "shop": "clothes", "website": "https://shopdeardreamer.com"}}, {"type": "node", "id": 2494243788, "lat": 40.6850168, "lon": -73.9917747, "tags": {"alt_name": "ArticleAnd", "name": "Article&", "opening_hours": "Mo-Su 11:00-18:00", "phone": "+1-718-852-3620", "shop": "clothes", "website": "https://www.articleand.com"}}, {"type": "node", "id": 2494254708, "lat": 40.6919567, "lon": -73.9874808, "tags": {"addr:housenumber": "406", "addr:postcode": "11201", "addr:street": "Jay Street", "name": "Treasure Chest of Jewelry", "opening_hours": "Mo-Fr 10:00-18:45; Sa 10:00-18:00", "shop": "jewelry"}}, {"type": "node", "id": 2494254720, "lat": 40.6918089, "lon": -73.9878568, "tags": {"addr:housenumber": "427", "addr:postcode": "11201", "addr:street": "Fulton Street", "name": "ABC Super Stores", "shop": "department_store"}}, {"type": "node", "id": 2494254722, "lat": 40.6917463, "lon": -73.9877008, "tags": {"addr:housenumber": "435", "addr:postcode": "11201", "addr:street": "Fulton Street", "name": "City Style New York", "shop": "shoes"}}, {"type": "node", "id": 2494255998, "lat": 40.6897013, "lon": -73.972363, "tags": {"addr:housenumber": "185", "addr:postcode": "11205", "addr:street": "DeKalb Avenue", "alt_name": "Your Other Left Ear", "name": "Sujuk", "phone": "+1-646-353-5101", "shop": "gift", "website": "https://yourotherleftear.com"}}, {"type": "node", "id": 2494258000, "lat": 40.665229, "lon": -73.9644683}, {"type": "node", "id": 2494295429, "lat": 40.6737462, "lon": -73.9892878}, {"type": "node", "id": 2494295448, "lat": 40.6738102, "lon": -73.9894207}, {"type": "node", "id": 2494295457, "lat": 40.6738157, "lon": -73.9892302}, {"type": "node", "id": 2494295479, "lat": 40.6738797, "lon": -73.9893631}, {"type": "node", "id": 2501548887, "lat": 40.7160394, "lon": -73.9974462, "tags": {"addr:city": "New York", "addr:floor": "2nd", "addr:housenumber": "13-17", "addr:postcode": "10013", "addr:state": "NY", "addr:street": "Elizabeth Street", "alt_name": "Eastern Bookstore", "contact:email": "ocebooks@yahoo.com", "contact:fax": "+1-212-431-6695", "contact:phone": "+1-212-226-8461", "contact:website": "http://easternbooknyc.com", "name": "Oriental Culture Enterprises Co", "name:zh": "\u6771\u65b9\u6587\u5316\u4e8b\u696d\u516c\u53f8", "opening_hours": "Mo-Su 10:00-19:00", "shop": "books"}}, {"type": "node", "id": 2501550492, "lat": 40.7540609, "lon": -73.9849066, "tags": {"addr:city": "New York", "addr:housenumber": "1073", "addr:postcode": "10018", "addr:state": "NY", "addr:street": "6th Avenue", "brand": "Kinokuniya", "brand:website": "https://usa.kinokuniya.com/", "brand:wikidata": "Q703227", "check_date": "2025-01-31", "contact:phone": "+1 212-869-1700", "contact:website": "https://usa.kinokuniya.com/stores-kinokuniya-new-york", "language:en": "yes", "language:ja": "yes", "level": "-1;0;1", "name": "Kinokuniya", "name:ja": "\u7d00\u4f0a\u56fd\u5c4b\u66f8\u5e97", "name:ja-Hira": "\u304d\u306e\u304f\u306b\u3084\u3057\u3087\u3066\u3093", "opening_hours": "Mo-Sa 10:00-20:00; Su 11:00-19:30", "payment:credit_cards": "yes", "payment:debit_cards": "yes", "shop": "books", "source": "https://usa.kinokuniya.com/stores-kinokuniya-new-york"}}, {"type": "node", "id": 2501562611, "lat": 40.7245873, "lon": -73.9964985, "tags": {"addr:city": "New York", "addr:housenumber": "126", "addr:postcode": "10012", "addr:state": "NY", "addr:street": "Crosby Street", "clothes": "second_hand", "cuisine": "coffee_shop", "description": "charity book and record shop including a cafe and a small selection of clothes and other second-hand goods", "drink:beer": "yes", "drink:coffee": "yes", "drink:espresso": "yes", "drink:wine": "yes", "happy_hours": "Th 17:00-19:00", "name": "Housing Works Bookstore Cafe", "opening_hours": "Mo-Sa 12:00-19:00; Su 12:00-17:00", "operator": "Housing Works", "phone": "+1-212-334-3324", "second_hand": "only", "shop": "books", "website": "https://www.housingworks.org/locations/bookstore-cafe"}}, {"type": "node", "id": 2501565260, "lat": 40.7603559, "lon": -73.9762428, "tags": {"addr:city": "New York", "addr:housenumber": "666", "addr:postcode": "10103", "addr:state": "NY", "addr:street": "5th Avenue", "branch": "5th Ave", "brand": "Uniqlo", "brand:wikidata": "Q26070", "check_date": "2025-04-29", "level": "0;1;2", "name": "Uniqlo", "opening_hours": "Mo-Su 11:00-20:00", "payment:american_express": "yes", "payment:cash": "no", "payment:credit_cards": "yes", "payment:mastercard": "yes", "payment:telephone_cards": "no", "payment:visa": "yes", "phone": "+1-877-486-4756", "ref": "10200002", "second_hand": "no", "shop": "clothes", "stroller": "yes", "toilets": "yes", "website": "https://map.uniqlo.com/us/en/detail/10200002", "wheelchair": "yes"}}, {"type": "node", "id": 2501569532, "lat": 40.7427359, "lon": -73.993194, "tags": {"addr:city": "New York", "addr:housenumber": "707", "addr:postcode": "10011", "addr:state": "NY", "addr:street": "6th Avenue", "alt_name": "Burlington Coat Factory", "brand": "Burlington", "brand:wikidata": "Q4999220", "name": "Burlington", "opening_hours": "08:30-21:30", "phone": "+1 212-229-1300", "ref": "235", "shop": "department_store", "website": "https://stores.burlington.com/ny/new-york/235"}}, {"type": "node", "id": 2501575586, "lat": 40.734314, "lon": -73.9900649, "tags": {"addr:city": "New York", "addr:housenumber": "52", "addr:postcode": "10003", "addr:state": "NY", "addr:street": "East 14th Street", "branch": "Union Square", "brand": "Best Buy", "brand:wikidata": "Q533415", "name": "Best Buy", "opening_hours": "Mo-Sa 10:00-21:00; Su 10:00-20:00", "phone": "+1 212-466-4789", "postal_code": "10003", "ref": "1531", "shop": "electronics", "website": "https://stores.bestbuy.com/ny/new-york/52-e-14th-st-1531.html", "wheelchair": "yes"}}, {"type": "node", "id": 2521731374, "lat": 40.6248806, "lon": -74.1153957}, {"type": "node", "id": 2521731378, "lat": 40.6248886, "lon": -74.1153697}, {"type": "node", "id": 2521731379, "lat": 40.6248947, "lon": -74.1153872}, {"type": "node", "id": 2521731384, "lat": 40.6249167, "lon": -74.115499}, {"type": "node", "id": 2521731392, "lat": 40.6249178, "lon": -74.1152738}, {"type": "node", "id": 2521731397, "lat": 40.6249268, "lon": -74.1152444}, {"type": "node", "id": 2521731403, "lat": 40.6249335, "lon": -74.115265}, {"type": "node", "id": 2521731421, "lat": 40.6249865, "lon": -74.1154344}, {"type": "node", "id": 2521731423, "lat": 40.6249918, "lon": -74.1154518}, {"type": "node", "id": 2521731424, "lat": 40.6249993, "lon": -74.1154275}, {"type": "node", "id": 2521731425, "lat": 40.6250027, "lon": -74.1151995}, {"type": "node", "id": 2521731428, "lat": 40.6250181, "lon": -74.1153172}, {"type": "node", "id": 2521731431, "lat": 40.6250262, "lon": -74.1153395}, {"type": "node", "id": 2521731435, "lat": 40.6250367, "lon": -74.1153054}, {"type": "node", "id": 2523439964, "lat": 40.7748263, "lon": -73.9819035, "tags": {"addr:city": "New York", "addr:housenumber": "1988", "addr:postcode": "10023", "addr:street": "Broadway", "brand": "Gap", "brand:wikidata": "Q420822", "name": "Gap", "shop": "clothes", "start_date": "1994", "website": "https://www.gap.com/", "wheelchair": "yes"}}, {"type": "node", "id": 2523619694, "lat": 40.6912089, "lon": -73.9914549, "tags": {"brand": "T-Mobile", "brand:wikidata": "Q3511885", "name": "T-Mobile", "opening_hours": "Mo-Sa 10:00-20:00; Su 10:00-19:00", "phone": "+1-718-488-5500", "shop": "mobile_phone", "website": "https://www.t-mobile.com/store-locator/ny/brooklyn/court-st-livingston-st-2", "wheelchair": "yes"}}, {"type": "node", "id": 2523787357, "lat": 40.6891631, "lon": -73.9927881, "tags": {"addr:housenumber": "142", "addr:postcode": "11201", "addr:street": "Court Street", "clothes": "women", "name": "Splendid", "opening_hours": "Mo-Sa 11:00-18:00; Su 12:00-17:00", "phone": "+1-718-694-2101", "shop": "clothes", "website": "https://splendid.com/pages/splendid-brooklyn"}}, {"type": "node", "id": 2523787365, "lat": 40.6885328, "lon": -73.9931239, "tags": {"addr:city": "Brooklyn", "addr:housenumber": "160", "addr:postcode": "11201", "addr:street": "Court Street", "name": "Rag & Bone", "opening_hours": "Mo-Sa 11:00-19:00; Su 12:00-18:00", "shop": "clothes"}}, {"type": "node", "id": 2523856228, "lat": 40.5230974, "lon": -74.2345193, "tags": {"addr:housenumber": "53", "addr:postcode": "10309", "addr:street": "Page Avenue", "name": "Boutique Boutique", "shop": "clothes"}}, {"type": "node", "id": 2524539809, "lat": 40.6870139, "lon": -73.9903916}, {"type": "node", "id": 2524539833, "lat": 40.6870627, "lon": -73.9903583}, {"type": "node", "id": 2524539843, "lat": 40.6870906, "lon": -73.9905859}, {"type": "node", "id": 2524539863, "lat": 40.6871322, "lon": -73.9905342}, {"type": "node", "id": 2524539866, "lat": 40.6871395, "lon": -73.9905526}, {"type": "node", "id": 2527359790, "lat": 40.8890265, "lon": -73.8310941, "tags": {"brand": "Boost Mobile", "brand:wikidata": "Q4943790", "name": "Boost Mobile", "shop": "mobile_phone"}}, {"type": "node", "id": 2533033265, "lat": 40.5793773, "lon": -74.1659392}, {"type": "node", "id": 2533033266, "lat": 40.579378, "lon": -74.1659471}, {"type": "node", "id": 2533033268, "lat": 40.579379, "lon": -74.1659315}, {"type": "node", "id": 2533033270, "lat": 40.5793829, "lon": -74.1659253}, {"type": "node", "id": 2533033272, "lat": 40.5793883, "lon": -74.1659215}, {"type": "node", "id": 2533033280, "lat": 40.579473, "lon": -74.1663642}, {"type": "node", "id": 2533033283, "lat": 40.5794764, "lon": -74.1663714}, {"type": "node", "id": 2533033284, "lat": 40.5794788, "lon": -74.1663743}, {"type": "node", "id": 2533033285, "lat": 40.5794847, "lon": -74.1663779}, {"type": "node", "id": 2533033286, "lat": 40.5794911, "lon": -74.1663784}, {"type": "node", "id": 2533033287, "lat": 40.5794943, "lon": -74.1663774}, {"type": "node", "id": 2533033292, "lat": 40.5796132, "lon": -74.166331}, {"type": "node", "id": 2533033293, "lat": 40.5796299, "lon": -74.1664067}, {"type": "node", "id": 2533033294, "lat": 40.5796335, "lon": -74.1664135}, {"type": "node", "id": 2533033295, "lat": 40.5796387, "lon": -74.166418}, {"type": "node", "id": 2533033297, "lat": 40.5796448, "lon": -74.1664197}, {"type": "node", "id": 2533033298, "lat": 40.579648, "lon": -74.1664193}, {"type": "node", "id": 2533033300, "lat": 40.5796846, "lon": -74.1657273}, {"type": "node", "id": 2533033301, "lat": 40.5797011, "lon": -74.1657998}, {"type": "node", "id": 2533033303, "lat": 40.5797722, "lon": -74.1656931}, {"type": "node", "id": 2533033304, "lat": 40.5797925, "lon": -74.1663617}, {"type": "node", "id": 2533033306, "lat": 40.5797983, "lon": -74.1663562}, {"type": "node", "id": 2533033307, "lat": 40.5798018, "lon": -74.1663219}, {"type": "node", "id": 2533033309, "lat": 40.5798023, "lon": -74.1663484}, {"type": "node", "id": 2533033310, "lat": 40.5798033, "lon": -74.16633}, {"type": "node", "id": 2533033311, "lat": 40.5798035, "lon": -74.166344}, {"type": "node", "id": 2533033312, "lat": 40.579804, "lon": -74.1663346}, {"type": "node", "id": 2533033313, "lat": 40.579819, "lon": -74.1663142}, {"type": "node", "id": 2533033318, "lat": 40.579863, "lon": -74.1660931}, {"type": "node", "id": 2533033346, "lat": 40.5800204, "lon": -74.1672108}, {"type": "node", "id": 2533033347, "lat": 40.580024, "lon": -74.167219}, {"type": "node", "id": 2533033348, "lat": 40.5800295, "lon": -74.1672252}, {"type": "node", "id": 2533033349, "lat": 40.5800362, "lon": -74.1672284}, {"type": "node", "id": 2533033353, "lat": 40.5801477, "lon": -74.1659878}, {"type": "node", "id": 2533033354, "lat": 40.5800435, "lon": -74.1672284}, {"type": "node", "id": 2533033355, "lat": 40.5800471, "lon": -74.1659653}, {"type": "node", "id": 2533033356, "lat": 40.5801354, "lon": -74.1659312}, {"type": "node", "id": 2533033362, "lat": 40.580152, "lon": -74.1656574}, {"type": "node", "id": 2533033363, "lat": 40.5801552, "lon": -74.1656569}, {"type": "node", "id": 2533033364, "lat": 40.5801617, "lon": -74.1656582}, {"type": "node", "id": 2533033366, "lat": 40.5801675, "lon": -74.1656623}, {"type": "node", "id": 2533033371, "lat": 40.580172, "lon": -74.1656687}, {"type": "node", "id": 2533033392, "lat": 40.5802232, "lon": -74.1659595}, {"type": "node", "id": 2533033394, "lat": 40.5802315, "lon": -74.1659581}, {"type": "node", "id": 2533033395, "lat": 40.5802393, "lon": -74.1659607}, {"type": "node", "id": 2533033396, "lat": 40.580246, "lon": -74.1659696}, {"type": "node", "id": 2533033397, "lat": 40.5802493, "lon": -74.1659824}, {"type": "node", "id": 2533033408, "lat": 40.5802956, "lon": -74.1659512}, {"type": "node", "id": 2533033410, "lat": 40.5802968, "lon": -74.1659638}, {"type": "node", "id": 2533033411, "lat": 40.5802977, "lon": -74.1659398}, {"type": "node", "id": 2533033412, "lat": 40.5803025, "lon": -74.1659306}, {"type": "node", "id": 2533033413, "lat": 40.5803074, "lon": -74.1659255}, {"type": "node", "id": 2533033414, "lat": 40.5803118, "lon": -74.1659224}, {"type": "node", "id": 2533033432, "lat": 40.5804354, "lon": -74.1658696}, {"type": "node", "id": 2533033433, "lat": 40.5804392, "lon": -74.1658697}, {"type": "node", "id": 2533033434, "lat": 40.5804464, "lon": -74.1658724}, {"type": "node", "id": 2533033435, "lat": 40.5804526, "lon": -74.1658782}, {"type": "node", "id": 2533033440, "lat": 40.5804569, "lon": -74.1658863}, {"type": "node", "id": 2533033443, "lat": 40.5804655, "lon": -74.1659236}, {"type": "node", "id": 2533033446, "lat": 40.5804844, "lon": -74.1658936}, {"type": "node", "id": 2533033447, "lat": 40.580489, "lon": -74.1659144}, {"type": "node", "id": 2533033456, "lat": 40.5805618, "lon": -74.1658632}, {"type": "node", "id": 2533033457, "lat": 40.5805665, "lon": -74.165884}, {"type": "node", "id": 2533033459, "lat": 40.5805804, "lon": -74.1639286}, {"type": "node", "id": 2533033463, "lat": 40.5806014, "lon": -74.1640197}, {"type": "node", "id": 2533033464, "lat": 40.5806002, "lon": -74.1637214}, {"type": "node", "id": 2533033467, "lat": 40.5806412, "lon": -74.1639049}, {"type": "node", "id": 2533033468, "lat": 40.5806616, "lon": -74.1639962}, {"type": "node", "id": 2533033470, "lat": 40.5806836, "lon": -74.1669816}, {"type": "node", "id": 2533033471, "lat": 40.5806877, "lon": -74.1668978}, {"type": "node", "id": 2533033472, "lat": 40.5806899, "lon": -74.1669769}, {"type": "node", "id": 2533033473, "lat": 40.5806948, "lon": -74.1669699}, {"type": "node", "id": 2533033476, "lat": 40.5806979, "lon": -74.1669612}, {"type": "node", "id": 2533033477, "lat": 40.5806986, "lon": -74.1669565}, {"type": "node", "id": 2533033478, "lat": 40.5806987, "lon": -74.1669517}, {"type": "node", "id": 2533033482, "lat": 40.580773, "lon": -74.164495}, {"type": "node", "id": 2533033487, "lat": 40.5808088, "lon": -74.1657901}, {"type": "node", "id": 2533033493, "lat": 40.5809771, "lon": -74.1644159}, {"type": "node", "id": 2533033494, "lat": 40.5810148, "lon": -74.1655865}, {"type": "node", "id": 2533033495, "lat": 40.5810181, "lon": -74.1656}, {"type": "node", "id": 2533033500, "lat": 40.5811648, "lon": -74.1655131}, {"type": "node", "id": 2533033501, "lat": 40.5811709, "lon": -74.1655401}, {"type": "node", "id": 2533033504, "lat": 40.5812189, "lon": -74.1654919}, {"type": "node", "id": 2533033518, "lat": 40.5817035, "lon": -74.163294}, {"type": "node", "id": 2533033519, "lat": 40.5817864, "lon": -74.1640969}, {"type": "node", "id": 2533033524, "lat": 40.5818752, "lon": -74.1640625}, {"type": "node", "id": 2533033533, "lat": 40.5820077, "lon": -74.1651855}, {"type": "node", "id": 2533033534, "lat": 40.582042, "lon": -74.1651722}, {"type": "node", "id": 2533033535, "lat": 40.5820477, "lon": -74.1651976}, {"type": "node", "id": 2533033536, "lat": 40.5821797, "lon": -74.1650613}, {"type": "node", "id": 2533033537, "lat": 40.5821972, "lon": -74.1651394}, {"type": "node", "id": 2533033542, "lat": 40.5823503, "lon": -74.1649954}, {"type": "node", "id": 2533033543, "lat": 40.5823584, "lon": -74.1650318}, {"type": "node", "id": 2533033546, "lat": 40.5825754, "lon": -74.1649047}, {"type": "node", "id": 2533033547, "lat": 40.5825841, "lon": -74.1649434}, {"type": "node", "id": 2533033549, "lat": 40.5828915, "lon": -74.1674543}, {"type": "node", "id": 2533033550, "lat": 40.5828183, "lon": -74.16481}, {"type": "node", "id": 2533033551, "lat": 40.58286, "lon": -74.1649958}, {"type": "node", "id": 2533033552, "lat": 40.5828605, "lon": -74.1661803}, {"type": "node", "id": 2533033553, "lat": 40.5828663, "lon": -74.1662057}, {"type": "node", "id": 2533033554, "lat": 40.5829279, "lon": -74.1649469}, {"type": "node", "id": 2533033555, "lat": 40.5829326, "lon": -74.1649678}, {"type": "node", "id": 2533033556, "lat": 40.5829427, "lon": -74.1661568}, {"type": "node", "id": 2533033557, "lat": 40.5829466, "lon": -74.166174}, {"type": "node", "id": 2533033558, "lat": 40.58301, "lon": -74.1649148}, {"type": "node", "id": 2533033559, "lat": 40.5830222, "lon": -74.1661254}, {"type": "node", "id": 2533033560, "lat": 40.5830299, "lon": -74.1661593}, {"type": "node", "id": 2533033561, "lat": 40.5830558, "lon": -74.1651179}, {"type": "node", "id": 2533033562, "lat": 40.5830774, "lon": -74.1651095}, {"type": "node", "id": 2533033563, "lat": 40.583077, "lon": -74.1651001}, {"type": "node", "id": 2533033564, "lat": 40.5830784, "lon": -74.1650944}, {"type": "node", "id": 2533033565, "lat": 40.583083, "lon": -74.1650842}, {"type": "node", "id": 2533033566, "lat": 40.5830861, "lon": -74.16508}, {"type": "node", "id": 2533033567, "lat": 40.5831395, "lon": -74.1661033}, {"type": "node", "id": 2533033568, "lat": 40.5831422, "lon": -74.166115}, {"type": "node", "id": 2533033569, "lat": 40.5831843, "lon": -74.1660857}, {"type": "node", "id": 2533033570, "lat": 40.5831893, "lon": -74.1661076}, {"type": "node", "id": 2533033571, "lat": 40.5832149, "lon": -74.1658376}, {"type": "node", "id": 2533033572, "lat": 40.583224, "lon": -74.164989}, {"type": "node", "id": 2533033573, "lat": 40.583224, "lon": -74.164998}, {"type": "node", "id": 2533033574, "lat": 40.5832268, "lon": -74.1649807}, {"type": "node", "id": 2533033575, "lat": 40.5832299, "lon": -74.1650239}, {"type": "node", "id": 2533033576, "lat": 40.5832318, "lon": -74.1649745}, {"type": "node", "id": 2533033577, "lat": 40.5832348, "lon": -74.1649726}, {"type": "node", "id": 2533033578, "lat": 40.5832397, "lon": -74.1658279}, {"type": "node", "id": 2533033579, "lat": 40.5832439, "lon": -74.1658489}, {"type": "node", "id": 2533033580, "lat": 40.5832458, "lon": -74.1658521}, {"type": "node", "id": 2533033581, "lat": 40.5832507, "lon": -74.1658567}, {"type": "node", "id": 2533033582, "lat": 40.5832566, "lon": -74.1658582}, {"type": "node", "id": 2533033583, "lat": 40.5832596, "lon": -74.1658577}, {"type": "node", "id": 2533033584, "lat": 40.5832668, "lon": -74.1649601}, {"type": "node", "id": 2533033585, "lat": 40.5832689, "lon": -74.1660764}, {"type": "node", "id": 2533033586, "lat": 40.5832734, "lon": -74.1649603}, {"type": "node", "id": 2533033587, "lat": 40.5832765, "lon": -74.1649616}, {"type": "node", "id": 2533033588, "lat": 40.583282, "lon": -74.1649666}, {"type": "node", "id": 2533033589, "lat": 40.583284, "lon": -74.16497}, {"type": "node", "id": 2533033590, "lat": 40.5832855, "lon": -74.1649739}, {"type": "node", "id": 2533033591, "lat": 40.5832974, "lon": -74.1650263}, {"type": "node", "id": 2533033602, "lat": 40.5834764, "lon": -74.165773}, {"type": "node", "id": 2533033603, "lat": 40.5834828, "lon": -74.165801}, {"type": "node", "id": 2533033604, "lat": 40.5834847, "lon": -74.1658052}, {"type": "node", "id": 2533033605, "lat": 40.5834901, "lon": -74.1658117}, {"type": "node", "id": 2533033606, "lat": 40.583497, "lon": -74.165815}, {"type": "node", "id": 2533033607, "lat": 40.5835007, "lon": -74.1658153}, {"type": "node", "id": 2533033608, "lat": 40.5835205, "lon": -74.16493}, {"type": "node", "id": 2533033609, "lat": 40.5835208, "lon": -74.1649391}, {"type": "node", "id": 2533033610, "lat": 40.5835226, "lon": -74.1649213}, {"type": "node", "id": 2533033611, "lat": 40.5835269, "lon": -74.1649141}, {"type": "node", "id": 2533033612, "lat": 40.5835328, "lon": -74.1649094}, {"type": "node", "id": 2533033613, "lat": 40.5835392, "lon": -74.1658002}, {"type": "node", "id": 2533033614, "lat": 40.5835402, "lon": -74.1657481}, {"type": "node", "id": 2533033615, "lat": 40.5835442, "lon": -74.1657954}, {"type": "node", "id": 2533033616, "lat": 40.5835471, "lon": -74.1657882}, {"type": "node", "id": 2533033617, "lat": 40.5835474, "lon": -74.16578}, {"type": "node", "id": 2533033618, "lat": 40.5838282, "lon": -74.1647939}, {"type": "node", "id": 2533033619, "lat": 40.5838347, "lon": -74.1647933}, {"type": "node", "id": 2533033620, "lat": 40.583841, "lon": -74.1647955}, {"type": "node", "id": 2533033621, "lat": 40.5838439, "lon": -74.1647977}, {"type": "node", "id": 2533033622, "lat": 40.5838486, "lon": -74.1648036}, {"type": "node", "id": 2533033623, "lat": 40.5838515, "lon": -74.1648113}, {"type": "node", "id": 2533033624, "lat": 40.5838575, "lon": -74.164839}, {"type": "node", "id": 2533033625, "lat": 40.5839077, "lon": -74.1656046}, {"type": "node", "id": 2533033626, "lat": 40.5839101, "lon": -74.1656119}, {"type": "node", "id": 2533033627, "lat": 40.5839144, "lon": -74.1656174}, {"type": "node", "id": 2533033628, "lat": 40.58392, "lon": -74.1656204}, {"type": "node", "id": 2533033629, "lat": 40.583926, "lon": -74.1656204}, {"type": "node", "id": 2533033630, "lat": 40.5840316, "lon": -74.1654365}, {"type": "node", "id": 2533033631, "lat": 40.5840494, "lon": -74.1655728}, {"type": "node", "id": 2533033632, "lat": 40.5840543, "lon": -74.1655697}, {"type": "node", "id": 2533033633, "lat": 40.5840578, "lon": -74.1655642}, {"type": "node", "id": 2533033634, "lat": 40.5840588, "lon": -74.1655609}, {"type": "node", "id": 2533033635, "lat": 40.5840592, "lon": -74.1655537}, {"type": "node", "id": 2533033636, "lat": 40.5842613, "lon": -74.1646885}, {"type": "node", "id": 2533033637, "lat": 40.5842672, "lon": -74.1646899}, {"type": "node", "id": 2533033638, "lat": 40.5842698, "lon": -74.1646918}, {"type": "node", "id": 2533033639, "lat": 40.5842721, "lon": -74.1646944}, {"type": "node", "id": 2533033640, "lat": 40.5842752, "lon": -74.1647011}, {"type": "node", "id": 2533033642, "lat": 40.584315, "lon": -74.1649856}, {"type": "node", "id": 2533033643, "lat": 40.5843215, "lon": -74.164983}, {"type": "node", "id": 2533033645, "lat": 40.5843271, "lon": -74.1649784}, {"type": "node", "id": 2533033646, "lat": 40.5843311, "lon": -74.1649715}, {"type": "node", "id": 2533033647, "lat": 40.5843321, "lon": -74.1649546}, {"type": "node", "id": 2533033648, "lat": 40.5843328, "lon": -74.1649632}, {"type": "node", "id": 2533033649, "lat": 40.5843558, "lon": -74.165308}, {"type": "node", "id": 2533033650, "lat": 40.5843636, "lon": -74.1653035}, {"type": "node", "id": 2533033651, "lat": 40.5843671, "lon": -74.1653002}, {"type": "node", "id": 2533033652, "lat": 40.5843702, "lon": -74.1652964}, {"type": "node", "id": 2533033653, "lat": 40.5843752, "lon": -74.1652873}, {"type": "node", "id": 2533033654, "lat": 40.5843781, "lon": -74.1652768}, {"type": "node", "id": 2533033655, "lat": 40.5843784, "lon": -74.1652601}, {"type": "node", "id": 2533033656, "lat": 40.5843789, "lon": -74.1652656}, {"type": "node", "id": 2541393250, "lat": 40.6262365, "lon": -74.1380488, "tags": {"addr:housenumber": "1521", "addr:postcode": "10302", "addr:street": "Forest Avenue", "name": "Sneaker & Cap Zone", "shop": "shoes"}}, {"type": "node", "id": 2541393258, "lat": 40.6257761, "lon": -74.1386203, "tags": {"addr:housenumber": "1541", "addr:postcode": "10302", "addr:street": "Forest Avenue", "clothes": "children", "name": "Kids Place", "shop": "clothes"}}, {"type": "node", "id": 2543252582, "lat": 40.651219, "lon": -73.8726992}, {"type": "node", "id": 2543252604, "lat": 40.6514432, "lon": -73.8721823}, {"type": "node", "id": 2543252622, "lat": 40.6514912, "lon": -73.8722183}, {"type": "node", "id": 2543252624, "lat": 40.6515028, "lon": -73.8721917}, {"type": "node", "id": 2543252626, "lat": 40.6515078, "lon": -73.8721954}, {"type": "node", "id": 2543252644, "lat": 40.6517309, "lon": -73.8728025}, {"type": "node", "id": 2543252645, "lat": 40.651732, "lon": -73.8730828}, {"type": "node", "id": 2543252646, "lat": 40.6517344, "lon": -73.871673}, {"type": "node", "id": 2543252648, "lat": 40.6517441, "lon": -73.8716803}, {"type": "node", "id": 2543252650, "lat": 40.6517855, "lon": -73.8728434}, {"type": "node", "id": 2543252651, "lat": 40.6518167, "lon": -73.8728877}, {"type": "node", "id": 2543252653, "lat": 40.6518635, "lon": -73.8724967}, {"type": "node", "id": 2543252666, "lat": 40.6519932, "lon": -73.8725936}, {"type": "node", "id": 2543252676, "lat": 40.652111, "lon": -73.872322}, {"type": "node", "id": 2543252678, "lat": 40.6521638, "lon": -73.8719941}, {"type": "node", "id": 2543252680, "lat": 40.6521766, "lon": -73.872371}, {"type": "node", "id": 2543252682, "lat": 40.6521826, "lon": -73.8721509}, {"type": "node", "id": 2543252687, "lat": 40.6522293, "lon": -73.8720432}, {"type": "node", "id": 2543252691, "lat": 40.6522494, "lon": -73.8705983}, {"type": "node", "id": 2543252693, "lat": 40.6522502, "lon": -73.8722014}, {"type": "node", "id": 2543252696, "lat": 40.6522734, "lon": -73.8705424}, {"type": "node", "id": 2543252698, "lat": 40.6522844, "lon": -73.8705506}, {"type": "node", "id": 2543252702, "lat": 40.652351, "lon": -73.8703957}, {"type": "node", "id": 2543252704, "lat": 40.652353, "lon": -73.8703656}, {"type": "node", "id": 2543252706, "lat": 40.6523637, "lon": -73.8704051}, {"type": "node", "id": 2543252708, "lat": 40.652374, "lon": -73.8703811}, {"type": "node", "id": 2543252710, "lat": 40.6524286, "lon": -73.8701897}, {"type": "node", "id": 2543252712, "lat": 40.6524443, "lon": -73.8701657}, {"type": "node", "id": 2543252714, "lat": 40.6524483, "lon": -73.8702043}, {"type": "node", "id": 2543252716, "lat": 40.6524599, "lon": -73.8701772}, {"type": "node", "id": 2543252720, "lat": 40.6526028, "lon": -73.869797}, {"type": "node", "id": 2543252721, "lat": 40.6526098, "lon": -73.8697693}, {"type": "node", "id": 2543252723, "lat": 40.652616, "lon": -73.8698068}, {"type": "node", "id": 2543252730, "lat": 40.6526267, "lon": -73.8697818}, {"type": "node", "id": 2543252732, "lat": 40.6526377, "lon": -73.8710902}, {"type": "node", "id": 2543252734, "lat": 40.6526861, "lon": -73.8695916}, {"type": "node", "id": 2543252735, "lat": 40.6526874, "lon": -73.871127}, {"type": "node", "id": 2543252737, "lat": 40.6526953, "lon": -73.8695784}, {"type": "node", "id": 2543252739, "lat": 40.6527043, "lon": -73.8709353}, {"type": "node", "id": 2543252741, "lat": 40.6527073, "lon": -73.8696073}, {"type": "node", "id": 2543252743, "lat": 40.6527138, "lon": -73.8695921}, {"type": "node", "id": 2543252744, "lat": 40.6527785, "lon": -73.8693848}, {"type": "node", "id": 2543252746, "lat": 40.6527969, "lon": -73.8693984}, {"type": "node", "id": 2543252748, "lat": 40.6528782, "lon": -73.8712683}, {"type": "node", "id": 2543252749, "lat": 40.6528953, "lon": -73.8691421}, {"type": "node", "id": 2543252750, "lat": 40.6529042, "lon": -73.8691487}, {"type": "node", "id": 2543252752, "lat": 40.6529214, "lon": -73.8690815}, {"type": "node", "id": 2543252753, "lat": 40.6529457, "lon": -73.8711112}, {"type": "node", "id": 2543252754, "lat": 40.6529797, "lon": -73.8691247}, {"type": "node", "id": 2543252758, "lat": 40.6530162, "lon": -73.8711634}, {"type": "node", "id": 2543252771, "lat": 40.6533092, "lon": -73.8696875}, {"type": "node", "id": 2543252774, "lat": 40.6533672, "lon": -73.8697958}, {"type": "node", "id": 2543252777, "lat": 40.6533885, "lon": -73.8697462}, {"type": "node", "id": 2543252785, "lat": 40.6534131, "lon": -73.8694458}, {"type": "node", "id": 2543252802, "lat": 40.6535468, "lon": -73.8699289}, {"type": "node", "id": 2543421547, "lat": 40.6508091, "lon": -73.8900591, "tags": {"addr:housenumber": "11112", "addr:postcode": "11239", "addr:street": "Flatlands Avenue", "name": "Total Wireless", "opening_hours": "Mo-Sa 10:00-20:00, Su 11:00-18:00", "phone": "+1-347-312-7503", "shop": "mobile_phone", "website": "https://www.totalwireless.com/stores/ny/brooklyn/11112-flatlands-ave"}}, {"type": "node", "id": 2545044592, "lat": 40.6725199, "lon": -73.8745308, "tags": {"addr:housenumber": "1175", "addr:postcode": "11208", "addr:street": "Sutter Avenue", "name": "Metro by T-Mobile", "opening_hours": "Mo-Sa 10:00-19:30; Su 11:00-17:00", "phone": "+1-718-235-2356", "shop": "mobile_phone", "website": "https://www.metrobyt-mobile.com/stores/bd/metro-by-t-mobile-brooklyn-ny-10227833/"}}, {"type": "node", "id": 2545250058, "lat": 40.5979937, "lon": -74.0826104, "tags": {"addr:city": "Staten Island", "addr:housenumber": "1198", "addr:postcode": "10305", "addr:state": "NY", "addr:street": "Hylan Boulevard", "clothes": "workwear", "name": "Z & K Police Equipment & Uniforms Inc", "shop": "clothes"}}, {"type": "node", "id": 2545431429, "lat": 40.5529042, "lon": -74.1930902, "tags": {"addr:housenumber": "262L", "addr:postcode": "10312", "addr:street": "Arden Avenue", "name": "Cards 50%", "shop": "gift"}}, {"type": "node", "id": 2545661852, "lat": 40.745419, "lon": -73.7154614, "tags": {"addr:housenumber": "255-01", "addr:postcode": "11004", "addr:street": "Union Turnpike", "brand": "Sprint", "brand:wikidata": "Q301965", "name": "Sprint", "shop": "mobile_phone"}}, {"type": "node", "id": 2545661877, "lat": 40.7462644, "lon": -73.7138543, "tags": {"addr:housenumber": "257-15", "addr:postcode": "11004", "addr:street": "Union Turnpike", "brand": "Marshalls", "brand:wikidata": "Q15903261", "name": "Marshalls", "shop": "department_store"}}, {"type": "node", "id": 2547000493, "lat": 40.7258577, "lon": -73.9922421, "tags": {"name": "October's Very Own", "opening_hours": "Mo-Sa 12:00-19:00; Su 12:00-18:00", "shop": "clothes", "short_name": "OVO", "website": "https://us.octobersveryown.com/pages/new-york"}}, {"type": "node", "id": 2547000506, "lat": 40.7258729, "lon": -73.9941906, "tags": {"addr:housenumber": "45", "addr:postcode": "10012", "addr:street": "Bleecker Street", "name": "Jane Apparel", "shop": "clothes", "website": "https://janemotorcycles.com"}}, {"type": "node", "id": 2547000510, "lat": 40.725972, "lon": -73.9925088, "tags": {"name": "Billy Reid", "opening_hours": "Mo-We 11:00-18:00; Th-Sa 11:00-19:00; Su 12:00-18:00", "phone": "+1-212-598-9355", "shop": "clothes", "website": "https://www.billyreid.com"}}, {"type": "node", "id": 2547041113, "lat": 40.7252453, "lon": -73.9949278}, {"type": "node", "id": 2547041788, "lat": 40.7245332, "lon": -73.9931824, "tags": {"addr:housenumber": "76", "addr:postcode": "10012", "addr:street": "East Houston Street", "entrance": "main"}}, {"type": "node", "id": 2547041790, "lat": 40.7244922, "lon": -73.9930581}, {"type": "node", "id": 2547041797, "lat": 40.7245743, "lon": -73.9933068}, {"type": "node", "id": 2547041801, "lat": 40.7246001, "lon": -73.9932961, "tags": {"addr:housenumber": "286", "addr:postcode": "10012", "addr:street": "Elizabeth Street", "entrance": "yes"}}, {"type": "node", "id": 2547041803, "lat": 40.724558, "lon": -73.9930281}, {"type": "node", "id": 2547041817, "lat": 40.7246259, "lon": -73.9932855}, {"type": "node", "id": 2547042026, "lat": 40.7252279, "lon": -73.9949404}, {"type": "node", "id": 2547042035, "lat": 40.7252598, "lon": -73.9950142}, {"type": "node", "id": 2547067890, "lat": 40.7244125, "lon": -73.99442, "tags": {"addr:housenumber": "293", "addr:postcode": "10012", "addr:street": "Mott Street", "name": "Jay Kos", "opening_hours": "\"by appointment\"", "shop": "clothes", "website": "https://www.jaykos.com"}}, {"type": "node", "id": 2547068249, "lat": 40.7236281, "lon": -73.9938786}, {"type": "node", "id": 2547068261, "lat": 40.7236474, "lon": -73.9939478}, {"type": "node", "id": 2547068267, "lat": 40.7236812, "lon": -73.9940686}, {"type": "node", "id": 2547068270, "lat": 40.7236884, "lon": -73.993854}, {"type": "node", "id": 2547068273, "lat": 40.7237012, "lon": -73.9941405}, {"type": "node", "id": 2547068276, "lat": 40.7237122, "lon": -73.9941798}, {"type": "node", "id": 2547068283, "lat": 40.7237518, "lon": -73.9938282}, {"type": "node", "id": 2547068287, "lat": 40.7237714, "lon": -73.9941512}, {"type": "node", "id": 2547068289, "lat": 40.7238188, "lon": -73.9940681}, {"type": "node", "id": 2547068290, "lat": 40.7238337, "lon": -73.9941212}, {"type": "node", "id": 2547083583, "lat": 40.7257759, "lon": -73.996277, "tags": {"addr:housenumber": "620", "addr:postcode": "10012", "addr:street": "Broadway", "name": "Ripndip", "opening_hours": "Mo-Su 11:00-20:00", "shop": "clothes", "website": "https://www.ripndipclothing.com/pages/ripndip-new-york"}}, {"type": "node", "id": 2547109036, "lat": 40.7251889, "lon": -73.9994493, "tags": {"addr:housenumber": "109", "addr:postcode": "10012", "addr:street": "Prince Street", "brand": "Polo Ralph Lauren", "brand:wikidata": "Q1641437", "check_date": "2023-12-10", "name": "Polo Ralph Lauren", "shop": "clothes"}}, {"type": "node", "id": 2547109069, "lat": 40.7253919, "lon": -73.9999366, "tags": {"addr:city": "New York", "addr:housenumber": "125", "addr:postcode": "10012", "addr:street": "Prince Street", "brand": "Max Mara", "brand:wikidata": "Q1151774", "clothes": "women", "name": "Max Mara", "opening_hours": "Mo-Su 11:00-19:00", "shop": "clothes", "website": "https://store.maxmara.com/en/united-states/new-york-soho/125-prince-street/max-mara-new-york-soho"}}, {"type": "node", "id": 2547109301, "lat": 40.7246197, "lon": -73.9976524, "tags": {"addr:housenumber": "577", "addr:postcode": "10012", "addr:street": "Broadway", "brand": "Pandora", "brand:wikidata": "Q2241604", "name": "Pandora", "shop": "jewelry"}},